{
   "0":{
      "id_district":7,
      "id_type":2,
      "address":"20 Ngõ 165 Cầu Giấy",
      "district":"Quận Cầu Giấy",
      "image":"BJbmBYj6e_1.jpg",
      "lat":21.03248,
      "long":105.79777,
      "name":"Le Festin Coffee - Cầu Giấy",
      "octime":" 10:00 AM - 09:30 PM",
      "rate":7.6,
      "type":"Café/Dessert",
      "id":"BJbmBYj6e"
   },
   "1":{
      "id_district":7,
      "id_type":2,
      "address":"9 Ngõ 132 Cầu Giấy",
      "district":"Quận Cầu Giấy",
      "image":"ryHXSKs6g_1.jpg",
      "lat":21.0326389,
      "long":105.7990156,
      "name":"Melody Cafe - Cầu Giấy",
      "octime":"  10:00 AM - 09:30 PM",
      "rate":8.3,
      "type":"Café/Dessert",
      "id":"ryHXSKs6g"
   },
   "2":{
      "id_district":7,
      "id_type":2,
      "address":"16 Ngõ 165 Cầu Giấy",
      "district":"Quận Cầu Giấy",
      "image":"HJu7BKoal_1.jpg",
      "lat":21.032192,
      "long":105.801548,
      "name":"Thủy Cafe - Cầu Giấy",
      "octime":"   07:00 AM - 10:00 PM",
      "rate":6,
      "type":"Café/Dessert",
      "id":"HJu7BKoal"
   },
   "3":{
      "id_district":7,
      "id_type":2,
      "address":"2A Cầu Giấy, P. Dịch Vọng",
      "district":"Quận Cầu Giấy",
      "image":"Sk14rFsax_1.jpg",
      "lat":21.035979,
      "long":105.790815,
      "name":"Việt Cafe - Cầu Giấy",
      "octime":"  08:00 AM - 10:00 PM",
      "rate":6.4,
      "type":"Café/Dessert",
      "id":"Sk14rFsax"
   },
   "4":{
      "id_district":7,
      "id_type":2,
      "address":"27 Cầu Giấy",
      "district":"Quận Cầu Giấy",
      "image":"BygNHFoTl_1.jpg",
      "lat":21.0293589498503,
      "long":105.8020962774753,
      "name":"Ronaldo Cafe - Cầu Giấy",
      "octime":"  07:00 AM - 11:30 PM",
      "rate":0,
      "type":"Café/Dessert",
      "id":"BygNHFoTl"
   },
   "5":{
      "id_district":7,
      "id_type":2,
      "address":"4 Ngách 78 Ngõ 68 Cầu Giấy",
      "district":"Quận Cầu Giấy",
      "image":"BkPEBtsae_1.jpg",
      "lat":21.032246,
      "long":105.801478,
      "name":"Cafe Cuối Ngõ - Cầu Giấy",
      "octime":"  09:00 AM - 11:00 PM",
      "rate":7.8,
      "type":"Café/Dessert",
      "id":"BkPEBtsae"
   },
   "6":{
      "id_district":7,
      "id_type":2,
      "address":"22 Ngõ 165 Cầu Giấy, P. Dịch Vọng",
      "district":"Quận Cầu Giấy",
      "image":"H1FNHFspg_1.jpg",
      "lat":21.0321632291768,
      "long":105.7975985482335,
      "name":"Mai Cafe - Cầu Giấy",
      "octime":"  08:00 AM - 10:00 PM",
      "rate":0,
      "type":"Café/Dessert",
      "id":"H1FNHFspg"
   },
   "7":{
      "id_district":7,
      "id_type":2,
      "address":"110 Cầu Giấy",
      "district":"Quận Cầu Giấy",
      "image":"SJ2NHFjTl_1.jpg",
      "lat":21.031306,
      "long":105.799803,
      "name":"M-Day Cafe - Khách Sạn Cầu Giấy",
      "octime":"   07:00 AM - 10:00 PM",
      "rate":6.7,
      "type":"Café/Dessert",
      "id":"SJ2NHFjTl"
   },
   "8":{
      "id_district":7,
      "id_type":2,
      "address":"Đối Diện Công Viên Cầu Giấy, Thành Thái",
      "district":"Quận Cầu Giấy",
      "image":"BkkrBFsag_1.jpg",
      "lat":21.029898,
      "long":105.790956,
      "name":"OTO Cafe - Công Viên Cầu Giấy",
      "octime":"  08:00 AM - 10:30 PM",
      "rate":7.2,
      "type":"Café/Dessert",
      "id":"BkkrBFsag"
   },
   "9":{
      "id_district":7,
      "id_type":2,
      "address":"Tầng 1, Tòa Nhà Chelsea Park, Trung Kính",
      "district":"Quận Cầu Giấy",
      "image":"rJGBrFoTe_1.jpg",
      "lat":21.0186188951116,
      "long":105.7930240407586,
      "name":"Highlands Coffee - Chelsea",
      "octime":"   07:00 AM - 11:00 PM",
      "rate":7.2,
      "type":"Café/Dessert",
      "id":"rJGBrFoTe"
   },
   "10":{
      "id_district":7,
      "id_type":2,
      "address":"A51 Hoàng Ngân",
      "district":"Quận Cầu Giấy",
      "image":"S18rHFj6e_1.jpg",
      "lat":21.0098827587677,
      "long":105.803025662899,
      "name":"Noble Moment - Cafe' Serendipity",
      "octime":"  08:00 AM - 10:00 PM",
      "rate":7.5,
      "type":"Café/Dessert",
      "id":"S18rHFj6e"
   },
   "11":{
      "id_district":7,
      "id_type":2,
      "address":"Tầng 1 Tòa Nhà Việt Á - Duy Tân",
      "district":"Quận Cầu Giấy",
      "image":"SydBHYsTg_1.jpg",
      "lat":21.030468,
      "long":105.787584,
      "name":"Twitter Beans Coffee",
      "octime":"   07:00 AM - 10:30 PM",
      "rate":7.6,
      "type":"Café/Dessert",
      "id":"SydBHYsTg"
   },
   "12":{
      "id_district":7,
      "id_type":2,
      "address":"27 Vũ Phạm Hàm",
      "district":"Quận Cầu Giấy",
      "image":"Hk2HHto6l_1.jpg",
      "lat":21.019303268972,
      "long":105.8001311937789,
      "name":"Highsky Coffee",
      "octime":"  07:00 AM - 11:00 PM",
      "rate":6.7,
      "type":"Café/Dessert",
      "id":"Hk2HHto6l"
   },
   "13":{
      "id_district":7,
      "id_type":2,
      "address":"9 Ngõ 337 Cầu Giấy",
      "district":"Quận Cầu Giấy",
      "image":"B1eLHYjax_1.jpg",
      "lat":21.034306,
      "long":105.795243,
      "name":"Tre Coffee",
      "octime":"  07:00 AM - 10:30 PM",
      "rate":6.9,
      "type":"Café/Dessert",
      "id":"B1eLHYjax"
   },
   "14":{
      "id_district":7,
      "id_type":2,
      "address":"22F Trần Duy Hưng",
      "district":"Quận Cầu Giấy",
      "image":"B1fUSYsal_1.jpg",
      "lat":21.0145072,
      "long":105.8034947999999,
      "name":"Passio Coffee - Trần Duy Hưng",
      "octime":"  06:30 AM - 10:30 PM",
      "rate":7.6,
      "type":"Café/Dessert",
      "id":"B1fUSYsal"
   },
   "15":{
      "id_district":7,
      "id_type":2,
      "address":"131 Yên Hòa",
      "district":"Quận Cầu Giấy",
      "image":"HJKUBto6x_1.jpg",
      "lat":21.023502,
      "long":105.793786,
      "name":"IHouse Cafe - Co-working Space",
      "octime":"  06:30 AM - 10:30 PM",
      "rate":7.7,
      "type":"Café/Dessert",
      "id":"HJKUBto6x"
   },
   "16":{
      "id_district":7,
      "id_type":2,
      "address":"91 Trần Duy Hưng, P. Trung Hòa",
      "district":"Quận Cầu Giấy",
      "image":"B1lt8Htjal_1.jpg",
      "lat":21.0112605,
      "long":105.8001297999999,
      "name":"Sooda Cafe",
      "octime":"  07:30 AM - 11:00 PM",
      "rate":7.5,
      "type":"Café/Dessert",
      "id":"B1lt8Htjal"
   },
   "17":{
      "id_district":7,
      "id_type":2,
      "address":"12/118 Nguyễn Khánh Toàn",
      "district":"Quận Cầu Giấy",
      "image":"SkQDHtjae_1.jpg",
      "lat":21.038094,
      "long":105.801226,
      "name":"Monaco Cafe",
      "octime":"   07:00 AM - 10:30 PM",
      "rate":7.5,
      "type":"Café/Dessert",
      "id":"SkQDHtjae"
   },
   "18":{
      "id_district":7,
      "id_type":2,
      "address":"161 Tô Hiệu",
      "district":"Quận Cầu Giấy",
      "image":"H1HDBFjTx_1.jpg",
      "lat":21.041589,
      "long":105.794563,
      "name":"New Style Cafe",
      "octime":"   07:00 AM - 10:30 PM",
      "rate":7.2,
      "type":"Café/Dessert",
      "id":"H1HDBFjTx"
   },
   "19":{
      "id_district":7,
      "id_type":2,
      "address":"8C Tôn Thất Thuyết, P. Dịch Vọng Hậu",
      "district":"Quận Cầu Giấy",
      "image":"rJ0wrtoTl_1.jpg",
      "lat":21.027776,
      "long":105.785517,
      "name":"Miriam's Cafe",
      "octime":"   07:00 AM - 10:30 PM",
      "rate":7.8,
      "type":"Café/Dessert",
      "id":"rJ0wrtoTl"
   },
   "20":{
      "id_district":7,
      "id_type":2,
      "address":"83 Nguyễn Khang",
      "district":"Quận Cầu Giấy",
      "image":"BkQOHYjpx_1.jpg",
      "lat":21.018045,
      "long":105.802122,
      "name":"Domino Coffee - Nguyễn Khang",
      "octime":"  08:00 AM - 11:00 PM",
      "rate":6.7,
      "type":"Café/Dessert",
      "id":"BkQOHYjpx"
   },
   "21":{
      "id_district":7,
      "id_type":2,
      "address":"32 Trần Đăng Ninh",
      "district":"Quận Cầu Giấy",
      "image":"rkHdSFs6x_1.jpg",
      "lat":21.0361339,
      "long":105.793932,
      "name":"Delio Coffee - Trần Đăng Ninh",
      "octime":"  07:00 AM - 11:00 PM",
      "rate":7.2,
      "type":"Café/Dessert",
      "id":"rkHdSFs6x"
   },
   "22":{
      "id_district":7,
      "id_type":2,
      "address":"7 Trần Quý Kiên",
      "district":"Quận Cầu Giấy",
      "image":"SypurYiTg_1.jpg",
      "lat":21.036467,
      "long":105.791849,
      "name":"Queen's Coffee Japan - Bánh Crepe",
      "octime":"   07:00 AM - 12:00 AM",
      "rate":7.3,
      "type":"Café/Dessert",
      "id":"SypurYiTg"
   },
   "23":{
      "id_district":7,
      "id_type":2,
      "address":"609 Giải Phóng",
      "district":"Quận Hoàng Mai",
      "image":"SJztrts6l_1.jpg",
      "lat":20.988853,
      "long":105.841072,
      "name":"River Coffee",
      "octime":"  07:00 AM - 10:00 PM",
      "rate":7.5,
      "type":"Café/Dessert",
      "id":"SJztrts6l"
   },
   "24":{
      "id_district":7,
      "id_type":2,
      "address":"101 Trung Kính",
      "district":"Quận Cầu Giấy",
      "image":"rJUYrti6g_1.jpg",
      "lat":21.01359,
      "long":105.799228,
      "name":"Nhạc Trịnh Cafe - Trung Kính",
      "octime":"  07:00 AM - 10:00 PM",
      "rate":6.8,
      "type":"Café/Dessert",
      "id":"rJUYrti6g"
   },
   "25":{
      "id_district":7,
      "id_type":2,
      "address":"Trung Yên 9, Yên Hòa",
      "district":"Quận Cầu Giấy",
      "image":"SyKtrFsTe_1.jpg",
      "lat":21.0167867682001,
      "long":105.8015041798353,
      "name":"565 Cafe",
      "octime":"  08:00 AM - 10:00 PM",
      "rate":10,
      "type":"Café/Dessert",
      "id":"SyKtrFsTe"
   },
   "26":{
      "id_district":7,
      "id_type":2,
      "address":"A6 Thọ Tháp",
      "district":"Quận Cầu Giấy",
      "image":"HkCFHYoal_1.jpg",
      "lat":21.0327415406797,
      "long":105.790067911148,
      "name":"Your Coffee",
      "octime":"  07:30 AM - 08:00 PM",
      "rate":7.1,
      "type":"Café/Dessert",
      "id":"HkCFHYoal"
   },
   "27":{
      "id_district":7,
      "id_type":2,
      "address":"215 Tô Hiệu",
      "district":"Quận Cầu Giấy",
      "image":"BJx9rYsTg_1.jpg",
      "lat":21.041609,
      "long":105.793254,
      "name":"Mộc Quán Cafe - Sân Vườn",
      "octime":"   07:30 AM - 10:30 PM",
      "rate":7.3,
      "type":"Café/Dessert",
      "id":"BJx9rYsTg"
   },
   "28":{
      "id_district":7,
      "id_type":2,
      "address":"257 Trần Quốc Hoàn",
      "district":"Quận Cầu Giấy",
      "image":"rJ7qHYo6g_1.jpg",
      "lat":21.0416841,
      "long":105.7851367,
      "name":"Gấu Coffee",
      "octime":"  08:00 AM - 10:30 PM",
      "rate":7.2,
      "type":"Café/Dessert",
      "id":"rJ7qHYo6g"
   },
   "29":{
      "id_district":7,
      "id_type":2,
      "address":"40 Ngõ 1 Nguyễn Thị Định",
      "district":"Quận Cầu Giấy",
      "image":"BJIqSti6e_1.jpg",
      "lat":21.013255,
      "long":105.803495,
      "name":"Santorini Cafe",
      "octime":"  06:45 AM - 10:30 PM",
      "rate":7.1,
      "type":"Café/Dessert",
      "id":"BJIqSti6e"
   },
   "30":{
      "id_district":7,
      "id_type":2,
      "address":"Ngõ 76 Duy Tân",
      "district":"Quận Cầu Giấy",
      "image":"SJF9BKspl_1.jpg",
      "lat":21.031462,
      "long":105.783889,
      "name":"Mộc Quán Cafe - Duy Tân",
      "octime":"  07:00 AM - 10:00 PM",
      "rate":8,
      "type":"Café/Dessert",
      "id":"SJF9BKspl"
   },
   "31":{
      "id_district":7,
      "id_type":2,
      "address":"14 Trần Thái Tông",
      "district":"Quận Cầu Giấy",
      "image":"r1iqSKjal_1.jpg",
      "lat":21.032728,
      "long":105.788573,
      "name":"Plus Cafe",
      "octime":"   07:00 AM - 10:30 PM",
      "rate":7.2,
      "type":"Café/Dessert",
      "id":"r1iqSKjal"
   },
   "32":{
      "id_district":7,
      "id_type":2,
      "address":"5 Trung Yên 3, P. Trung Hòa",
      "district":"Quận Cầu Giấy",
      "image":"ByR9rYs6x_1.jpg",
      "lat":21.015668,
      "long":105.800696,
      "name":"Connect Coffee",
      "octime":"   07:00 AM - 10:30 PM",
      "rate":7.6,
      "type":"Café/Dessert",
      "id":"ByR9rYs6x"
   },
   "33":{
      "id_district":7,
      "id_type":2,
      "address":"27 Nguyễn Văn Huyên",
      "district":"Quận Cầu Giấy",
      "image":"SJyiSFspe_1.jpg",
      "lat":21.036388,
      "long":105.797354,
      "name":"Windy Coffee",
      "octime":"  07:00 AM - 11:00 PM",
      "rate":7,
      "type":"Café/Dessert",
      "id":"SJyiSFspe"
   },
   "34":{
      "id_district":7,
      "id_type":2,
      "address":"101B8 Tô Hiệu",
      "district":"Quận Cầu Giấy",
      "image":"ByVsBYo6l_1.jpg",
      "lat":21.0429026207647,
      "long":105.7965736091137,
      "name":"Gemini Coffee - Tô Hiệu",
      "octime":"   09:00 AM - 11:00 PM",
      "rate":5.9,
      "type":"Café/Dessert",
      "id":"ByVsBYo6l"
   },
   "35":{
      "id_district":7,
      "id_type":2,
      "address":"144 Xuân Thủy",
      "district":"Quận Cầu Giấy",
      "image":"BkBoHKiae_1.jpg",
      "lat":21.037308,
      "long":105.782212,
      "name":"Unibeans Coffee",
      "octime":"   07:00 AM - 10:00 PM",
      "rate":7.8,
      "type":"Café/Dessert",
      "id":"BkBoHKiae"
   },
   "36":{
      "id_district":7,
      "id_type":2,
      "address":"305 Nguyễn Khang, P. Yên Hòa",
      "district":"Quận Cầu Giấy",
      "image":"rJ5iSti6l_1.jpg",
      "lat":21.0243454766802,
      "long":105.797108374536,
      "name":"Macada Coffee",
      "octime":"  08:00 AM - 10:30 PM",
      "rate":7.6,
      "type":"Café/Dessert",
      "id":"rJ5iSti6l"
   },
   "37":{
      "id_district":7,
      "id_type":2,
      "address":"Tầng 1, IPH, 241 Xuân Thuỷ",
      "district":"Quận Cầu Giấy",
      "image":"BJhoStiTl_1.jpg",
      "lat":21.0363565625812,
      "long":105.7819381356239,
      "name":"Starbucks Coffee - IPH Xuân Thủy",
      "octime":"   06:30 AM - 10:00 PM",
      "rate":7.4,
      "type":"Café/Dessert",
      "id":"BJhoStiTl"
   },
   "38":{
      "id_district":7,
      "id_type":2,
      "address":"86 Trần Quốc Hoàn",
      "district":"Quận Cầu Giấy",
      "image":"HJl2HKs6x_1.jpg",
      "lat":21.0416337,
      "long":105.7863717999999,
      "name":"Yell Coffee - Trần Quốc Hoàn",
      "octime":"  08:00 AM - 11:00 PM",
      "rate":7.2,
      "type":"Café/Dessert",
      "id":"HJl2HKs6x"
   },
   "39":{
      "id_district":7,
      "id_type":2,
      "address":"317 Nguyễn Khang",
      "district":"Quận Cầu Giấy",
      "image":"r1_nrFjTg_1.jpg",
      "lat":21.0241792968733,
      "long":105.7974788546562,
      "name":"Cup Of Tea Cafe & Bistro - Nguyễn Khang",
      "octime":"   07:30 AM - 10:00 PM",
      "rate":7.7,
      "type":"Café/Dessert",
      "id":"r1_nrFjTg"
   },
   "40":{
      "id_district":7,
      "id_type":2,
      "address":"101B C4 Nghĩa Tân",
      "district":"Quận Cầu Giấy",
      "image":"Skt2SKspx_1.jpg",
      "lat":21.0418214880087,
      "long":105.7936188206076,
      "name":"Vy Roong Cafe",
      "octime":"  07:00 AM - 10:00 PM",
      "rate":7.6,
      "type":"Café/Dessert",
      "id":"Skt2SKspx"
   },
   "41":{
      "id_district":7,
      "id_type":2,
      "address":"279 Tô Hiệu",
      "district":"Quận Cầu Giấy",
      "image":"BJZpSYjax_1.jpg",
      "lat":21.041629,
      "long":105.790958,
      "name":"Latino Cafe",
      "octime":"   07:00 AM - 11:00 PM",
      "rate":7.1,
      "type":"Café/Dessert",
      "id":"BJZpSYjax"
   },
   "42":{
      "id_district":7,
      "id_type":2,
      "address":"34 Ngách 51 Ngõ 155 Cầu Giấy",
      "district":"Quận Cầu Giấy",
      "image":"HJ4TSKjpx_1.jpg",
      "lat":21.0303162474309,
      "long":105.796740911901,
      "name":"Quận Cafe",
      "octime":"  08:00 AM - 10:30 PM",
      "rate":4.8,
      "type":"Café/Dessert",
      "id":"HJ4TSKjpx"
   },
   "43":{
      "id_district":7,
      "id_type":2,
      "address":"477 Hoàng Quốc Việt ",
      "district":"Quận Cầu Giấy",
      "image":"HyPaBtj6e_1.jpg",
      "lat":21.046024,
      "long":105.785901,
      "name":"Sun Cafe",
      "octime":"   07:00 AM - 10:30 PM",
      "rate":5.9,
      "type":"Café/Dessert",
      "id":"HyPaBtj6e"
   },
   "44":{
      "id_district":7,
      "id_type":2,
      "address":"136 Xuân Thủy ",
      "district":"Quận Cầu Giấy",
      "image":"Hyn6HYo6x_1.jpg",
      "lat":21.036762,
      "long":105.784242,
      "name":"Sách Cafe - Xuân Thủy",
      "octime":"   07:30 AM - 10:00 PM",
      "rate":6.8,
      "type":"Café/Dessert",
      "id":"Hyn6HYo6x"
   },
   "45":{
      "id_district":7,
      "id_type":2,
      "address":"C15 Cốm Vòng",
      "district":"Quận Cầu Giấy",
      "image":"B1RarYs6x_1.jpg",
      "lat":21.0317028941196,
      "long":105.7848010584712,
      "name":"Asia Cafe",
      "octime":"  07:00 AM - 10:30 PM",
      "rate":7.2,
      "type":"Café/Dessert",
      "id":"B1RarYs6x"
   },
   "46":{
      "id_district":7,
      "id_type":2,
      "address":"231 Tô Hiệu",
      "district":"Quận Cầu Giấy",
      "image":"BkNCStoTl_1.jpg",
      "lat":21.041547,
      "long":105.7933419999999,
      "name":"Rain Coffee -Tô Hiệu",
      "octime":"  07:00 AM - 11:00 PM",
      "rate":7.4,
      "type":"Café/Dessert",
      "id":"BkNCStoTl"
   },
   "47":{
      "id_district":7,
      "id_type":2,
      "address":"86 Trần Quốc Hoàn",
      "district":"Quận Cầu Giấy",
      "image":"BJB0HKsax_1.jpg",
      "lat":21.041659,
      "long":105.789169,
      "name":"Lau Café",
      "octime":"  07:30 AM - 11:00 PM",
      "rate":7.6,
      "type":"Café/Dessert",
      "id":"BJB0HKsax"
   },
   "48":{
      "id_district":7,
      "id_type":2,
      "address":"29 Nguyễn Khang",
      "district":"Quận Cầu Giấy",
      "image":"Hk1yItsTl_1.jpg",
      "lat":21.015972,
      "long":105.803447,
      "name":"G4U - Acoustic Cafe",
      "octime":"   07:00 AM - 11:00 PM",
      "rate":6.9,
      "type":"Café/Dessert",
      "id":"Hk1yItsTl"
   },
   "49":{
      "id_district":7,
      "id_type":2,
      "address":"Số 7 Ngõ 83 Nguyễn Khang, Yên Hòa",
      "district":"Quận Cầu Giấy",
      "image":"HJlJIYoTe_1.jpg",
      "lat":21.027019,
      "long":105.798211,
      "name":"Fe Cafe",
      "octime":"   08:00 AM - 10:30 PM",
      "rate":6.7,
      "type":"Café/Dessert",
      "id":"HJlJIYoTe"
   },
   "50":{
      "id_district":7,
      "id_type":2,
      "address":"70 Trần Thái Tông",
      "district":"Quận Cầu Giấy",
      "image":"ryvyUFiTg_1.jpg",
      "lat":21.032862,
      "long":105.788927,
      "name":"Jima Cafe",
      "octime":"   07:30 AM - 10:00 PM",
      "rate":7.2,
      "type":"Café/Dessert",
      "id":"ryvyUFiTg"
   },
   "51":{
      "id_district":7,
      "id_type":2,
      "address":"Nhà B1 Ngõ 235B Lạc Long Quân",
      "district":"Quận Cầu Giấy",
      "image":"rygv18Kspe_1.jpg",
      "lat":21.05129,
      "long":105.808041,
      "name":"Kimis' Coffee",
      "octime":"  08:00 AM - 10:00 PM",
      "rate":7.6,
      "type":"Café/Dessert",
      "id":"rygv18Kspe"
   },
   "52":{
      "id_district":7,
      "id_type":2,
      "address":"Tầng 5, 21A Nguyễn Khang",
      "district":"Quận Cầu Giấy",
      "image":"HyAy8ts6e_1.jpg",
      "lat":21.0180418,
      "long":105.8022608999999,
      "name":"Roofboom Coffee - Nguyễn Khang",
      "octime":"  08:00 AM - 11:00 PM",
      "rate":7.7,
      "type":"Café/Dessert",
      "id":"HyAy8ts6e"
   },
   "53":{
      "id_district":7,
      "id_type":2,
      "address":"Nhà G4, Ngõ 233 Tô Hiệu",
      "district":"Quận Cầu Giấy",
      "image":"r11eUKoae_1.jpg",
      "lat":21.040365,
      "long":105.792657,
      "name":"Sailing Dessert & Cafe",
      "octime":"  08:00 AM - 11:00 PM",
      "rate":7.3,
      "type":"Café/Dessert",
      "id":"r11eUKoae"
   },
   "54":{
      "id_district":7,
      "id_type":2,
      "address":"15 Ngõ 12/41 Trần Quốc Hoàn",
      "district":"Quận Cầu Giấy",
      "image":"BJSxIYsag_1.jpg",
      "lat":21.0416584,
      "long":105.7865065999999,
      "name":"Italk Coffee",
      "octime":"  08:00 AM - 10:00 PM",
      "rate":7.6,
      "type":"Café/Dessert",
      "id":"BJSxIYsag"
   },
   "55":{
      "id_district":7,
      "id_type":2,
      "address":"34 Nguyễn Văn Huyên (Kéo Dài)",
      "district":"Quận Cầu Giấy",
      "image":"Sk8lLtsae_1.jpg",
      "lat":21.034449,
      "long":105.797467,
      "name":"Highway Coffee",
      "octime":"  07:00 AM - 11:00 PM",
      "rate":8,
      "type":"Café/Dessert",
      "id":"Sk8lLtsae"
   },
   "56":{
      "id_district":7,
      "id_type":2,
      "address":"29 Xuân Thuỷ",
      "district":"Quận Cầu Giấy",
      "image":"rJAl8ti6l_1.jpg",
      "lat":21.03603,
      "long":105.789108,
      "name":"Urban Station Coffee Takeaway - Xuân Thuỷ",
      "octime":"  09:00 AM - 10:00 PM",
      "rate":7.1,
      "type":"Café/Dessert",
      "id":"rJAl8ti6l"
   },
   "57":{
      "id_district":7,
      "id_type":2,
      "address":"Big C Thăng Long, 222 Trần Duy Hưng",
      "district":"Quận Cầu Giấy",
      "image":"SJy-UFi6e_1.jpg",
      "lat":21.0066476952276,
      "long":105.7927232980728,
      "name":"Snow Island Coffee - Big C Thăng Long",
      "octime":"  07:00 AM - 11:00 PM",
      "rate":7.2,
      "type":"Café/Dessert",
      "id":"SJy-UFi6e"
   },
   "58":{
      "id_district":7,
      "id_type":2,
      "address":"3 Trần Thái Tông",
      "district":"Quận Cầu Giấy",
      "image":"ryEW8Yiae_1.jpg",
      "lat":21.0360761762087,
      "long":105.7896575331687,
      "name":"Aroi Dessert Cafe - Trần Thái Tông",
      "octime":"  07:00 AM - 11:00 PM",
      "rate":7.3,
      "type":"Café/Dessert",
      "id":"ryEW8Yiae"
   },
   "59":{
      "id_district":7,
      "id_type":2,
      "address":"25 Nguyễn Khành Toàn",
      "district":"Quận Cầu Giấy",
      "image":"SJBZIFj6g_1.jpg",
      "lat":21.037154,
      "long":105.801607,
      "name":"Liên Cafe",
      "octime":"   07:00 AM - 10:00 PM",
      "rate":5,
      "type":"Café/Dessert",
      "id":"SJBZIFj6g"
   },
   "60":{
      "id_district":7,
      "id_type":2,
      "address":"9 Trần Quốc Hoàn, P. Dịch Vọng Hậu",
      "district":"Quận Cầu Giấy",
      "image":"SkqWUFoTl_1.jpg",
      "lat":21.0415725,
      "long":105.789102,
      "name":"Fixx Cafe",
      "octime":"   07:00 AM - 10:30 PM",
      "rate":5.2,
      "type":"Café/Dessert",
      "id":"SkqWUFoTl"
   },
   "61":{
      "id_district":7,
      "id_type":2,
      "address":"D9 Cốm Vòng",
      "district":"Quận Cầu Giấy",
      "image":"B1yf8Kipe_1.jpg",
      "lat":21.032228,
      "long":105.784057,
      "name":"Mộc Quán Cafe - Cốm Vòng",
      "octime":"   07:30 AM - 10:30 PM",
      "rate":7.2,
      "type":"Café/Dessert",
      "id":"B1yf8Kipe"
   },
   "62":{
      "id_district":7,
      "id_type":2,
      "address":"233 Tô Hiệu, P. Dịch Vọng",
      "district":"Quận Cầu Giấy",
      "image":"H1HG8Fj6l_1.jpg",
      "lat":21.0415799,
      "long":105.792748,
      "name":"Nhớ Phố Xưa Cafe",
      "octime":"   07:00 AM - 10:00 PM",
      "rate":7.5,
      "type":"Café/Dessert",
      "id":"H1HG8Fj6l"
   },
   "63":{
      "id_district":7,
      "id_type":2,
      "address":"299 Cầu Giấy, P. Dịch Vọng",
      "district":"Quận Cầu Giấy",
      "image":"Hyqz8KsTl_1.jpg",
      "lat":21.034859,
      "long":105.794209,
      "name":"Mộc Quán Nhà Sàn Cafe",
      "octime":"   07:00 AM - 10:30 PM",
      "rate":6.8,
      "type":"Café/Dessert",
      "id":"Hyqz8KsTl"
   },
   "64":{
      "id_district":7,
      "id_type":1,
      "address":"81 Mạc Thái Tổ, P. Yên Hòa",
      "district":"Quận Cầu Giấy",
      "image":"SJV7Utj6e_1.jpg",
      "lat":21.01799,
      "long":105.79039,
      "name":"Angtoan Café",
      "octime":"  07:00 AM - 11:00 PM",
      "rate":7.1,
      "type":"Quán ăn",
      "id":"SJV7Utj6e"
   },
   "65":{
      "id_district":7,
      "id_type":2,
      "address":"19 Vũ Phạm Hàm",
      "district":"Quận Cầu Giấy",
      "image":"HkoXUYsTl_1.jpg",
      "lat":21.0194691996344,
      "long":105.8002462441802,
      "name":"Xưởng Cafe",
      "octime":"  07:00 AM - 11:00 PM",
      "rate":7.4,
      "type":"Café/Dessert",
      "id":"HkoXUYsTl"
   },
   "66":{
      "id_district":7,
      "id_type":2,
      "address":"104 B1, TT. Nghĩa Tân",
      "district":"Quận Cầu Giấy",
      "image":"BJz48Foax_1.jpg",
      "lat":21.045266,
      "long":105.7958579999999,
      "name":"Take Coffee",
      "octime":"  07:00 AM - 11:00 PM",
      "rate":7.6,
      "type":"Café/Dessert",
      "id":"BJz48Foax"
   },
   "67":{
      "id_district":7,
      "id_type":1,
      "address":"CMC Tower, Số 1 Ngõ 11 Duy Tân, P. Dịch Vọng Hậu",
      "district":"Quận Cầu Giấy",
      "image":"Bka48YoTg_1.jpg",
      "lat":21.030747,
      "long":105.784092,
      "name":"Time Restaurant and Coffee",
      "octime":"   06:30 AM - 10:30 PM",
      "rate":7.1,
      "type":"Quán ăn",
      "id":"Bka48YoTg"
   },
   "68":{
      "id_district":7,
      "id_type":2,
      "address":"Tầng 1, Tầng 8 Keangnam Landmark, 72 Phạm Hùng",
      "district":"Quận Cầu Giấy",
      "image":"BJ4BIYo6e_1.jpg",
      "lat":21.035602,
      "long":105.780619,
      "name":"Vpresso Cafe - Keangnam Landmark",
      "octime":"   08:00 AM - 10:30 PM",
      "rate":7.5,
      "type":"Café/Dessert",
      "id":"BJ4BIYo6e"
   },
   "69":{
      "id_district":7,
      "id_type":2,
      "address":"Lô 8 Toà B, Cổng 3 Mandarin Garden, Hoàng Minh Giám",
      "district":"Quận Cầu Giấy",
      "image":"B1qrLFopl_1.jpg",
      "lat":21.005916,
      "long":105.799106,
      "name":"10+ Coffee & Fruits",
      "octime":"  06:30 AM - 10:30 PM",
      "rate":7.6,
      "type":"Café/Dessert",
      "id":"B1qrLFopl"
   },
   "70":{
      "id_district":7,
      "id_type":2,
      "address":"16 Ngõ 204 Trần Duy Hưng",
      "district":"Quận Cầu Giấy",
      "image":"H1rILtjpg_1.jpg",
      "lat":21.009176,
      "long":105.7968880999999,
      "name":"EOEO Cafe - Cà Phê Mèo",
      "octime":"  07:30 AM - 10:30 PM",
      "rate":8.1,
      "type":"Café/Dessert",
      "id":"H1rILtjpg"
   },
   "71":{
      "id_district":7,
      "id_type":2,
      "address":"106 B9 Tô Hiệu",
      "district":"Quận Cầu Giấy",
      "image":"ByjIUFsae_1.jpg",
      "lat":21.0424457609917,
      "long":105.7956948503851,
      "name":"Pattern Coffee - Tô Hiệu",
      "octime":"  07:00 AM - 11:00 PM",
      "rate":7.5,
      "type":"Café/Dessert",
      "id":"ByjIUFsae"
   },
   "72":{
      "id_district":7,
      "id_type":2,
      "address":"2 Ngõ 82 Nghĩa Tân",
      "district":"Quận Cầu Giấy",
      "image":"Hyew8toax_1.jpg",
      "lat":21.0435913498694,
      "long":105.7907304167747,
      "name":"Tầng Trệt Cafe And Tea Room",
      "octime":"   0:00 - 0:00",
      "rate":7.5,
      "type":"Café/Dessert",
      "id":"Hyew8toax"
   },
   "73":{
      "id_district":7,
      "id_type":2,
      "address":"25C Trần Duy Hưng",
      "district":"Quận Cầu Giấy",
      "image":"SyLPIYsae_1.jpg",
      "lat":21.0140487042116,
      "long":105.8037565119476,
      "name":"Patisserie Lapin - Cafe Bánh Ngọt Lapin",
      "octime":"  08:00 AM - 10:00 PM",
      "rate":7.6,
      "type":"Café/Dessert",
      "id":"SyLPIYsae"
   },
   "74":{
      "id_district":7,
      "id_type":2,
      "address":"58 Nghĩa Tân, P. Nghĩa Tân",
      "district":"Quận Cầu Giấy",
      "image":"Syjw8toTg_1.jpg",
      "lat":21.0434989,
      "long":105.791276,
      "name":"Up Cafe",
      "octime":"   07:00 AM - 10:30 PM",
      "rate":6.8,
      "type":"Café/Dessert",
      "id":"Syjw8toTg"
   },
   "75":{
      "id_district":7,
      "id_type":2,
      "address":"32E Cầu Giấy",
      "district":"Quận Cầu Giấy",
      "image":"Byg_IFo6x_1.jpg",
      "lat":21.029011,
      "long":105.804241,
      "name":"AT Cafe",
      "octime":"   07:00 AM - 11:00 PM",
      "rate":7.4,
      "type":"Café/Dessert",
      "id":"Byg_IFo6x"
   },
   "76":{
      "id_district":7,
      "id_type":2,
      "address":"Tầng 2, Tòa Nhà LOD, Nguyễn Phong Sắc (KD)",
      "district":"Quận Cầu Giấy",
      "image":"SJL_IYj6e_1.jpg",
      "lat":21.043892,
      "long":105.790207,
      "name":"Press Cafe",
      "octime":"   07:00 AM - 10:30 PM",
      "rate":7,
      "type":"Café/Dessert",
      "id":"SJL_IYj6e"
   },
   "77":{
      "id_district":7,
      "id_type":2,
      "address":"61 - 63 Trần Quốc Hoàn, P. Dịch Vọng Hậu",
      "district":"Quận Cầu Giấy",
      "image":"ryj_8KjTg_1.jpg",
      "lat":21.041649,
      "long":105.789805,
      "name":"Boong Cafe",
      "octime":"   07:00 AM - 10:30 PM",
      "rate":7.8,
      "type":"Café/Dessert",
      "id":"ryj_8KjTg"
   },
   "78":{
      "id_district":7,
      "id_type":2,
      "address":"51 Nguyễn Phong Sắc",
      "district":"Quận Cầu Giấy",
      "image":"ryWtUtopg_1.jpg",
      "lat":21.037435,
      "long":105.79002,
      "name":"Báo Cafe - Nguyễn Phong Sắc",
      "octime":"   07:00 AM - 10:00 PM",
      "rate":7.6,
      "type":"Café/Dessert",
      "id":"ryWtUtopg"
   },
   "79":{
      "id_district":7,
      "id_type":2,
      "address":"15 Ngõ 72 Trần Thái Tông",
      "district":"Quận Cầu Giấy",
      "image":"rywFIti6g_1.jpg",
      "lat":21.0292315809281,
      "long":105.7874353229999,
      "name":"Pause Coffee",
      "octime":"  08:00 AM - 10:00 PM",
      "rate":7.8,
      "type":"Café/Dessert",
      "id":"rywFIti6g"
   },
   "80":{
      "id_district":7,
      "id_type":2,
      "address":"126 Trung Kính, P. Trung Hòa",
      "district":"Quận Cầu Giấy",
      "image":"HJTt8Ys6e_1.jpg",
      "lat":21.01477,
      "long":105.79555,
      "name":"Modern Cafe",
      "octime":"   07:00 AM - 10:00 PM",
      "rate":5.3,
      "type":"Café/Dessert",
      "id":"HJTt8Ys6e"
   },
   "81":{
      "id_district":7,
      "id_type":2,
      "address":"145 Nguyễn Ngọc Vũ",
      "district":"Quận Cầu Giấy",
      "image":"B1z5UKs6g_1.jpg",
      "lat":21.0129750326477,
      "long":105.8068863052794,
      "name":"DC Coffee",
      "octime":"  07:30 AM - 10:30 PM",
      "rate":7.2,
      "type":"Café/Dessert",
      "id":"B1z5UKs6g"
   },
   "82":{
      "id_district":7,
      "id_type":2,
      "address":"142 Trung Hòa",
      "district":"Quận Cầu Giấy",
      "image":"Hy_cIYoag_1.jpg",
      "lat":21.0171438688397,
      "long":105.7991391420364,
      "name":"Daddy Paris - Cafe & Gauteux",
      "octime":"  06:00 AM - 11:00 PM",
      "rate":8,
      "type":"Café/Dessert",
      "id":"Hy_cIYoag"
   },
   "83":{
      "id_district":7,
      "id_type":2,
      "address":"44 Dương Quảng Hàm",
      "district":"Quận Cầu Giấy",
      "image":"r16q8Yoag_1.jpg",
      "lat":21.033758,
      "long":105.79879,
      "name":"Dating Cafe",
      "octime":"   07:00 AM - 10:30 PM",
      "rate":7.5,
      "type":"Café/Dessert",
      "id":"r16q8Yoag"
   },
   "84":{
      "id_district":7,
      "id_type":2,
      "address":"Làng Quốc Tế Thăng Long, Chùa Hà",
      "district":"Quận Cầu Giấy",
      "image":"BkziIYi6l_1.jpg",
      "lat":21.039536,
      "long":105.794553,
      "name":"De Paris Cafe",
      "octime":"   07:00 AM - 10:30 PM",
      "rate":7.2,
      "type":"Café/Dessert",
      "id":"BkziIYi6l"
   },
   "85":{
      "id_district":7,
      "id_type":2,
      "address":"249 Nguyễn Khang",
      "district":"Quận Cầu Giấy",
      "image":"ry_o8Fopg_1.jpg",
      "lat":21.022612,
      "long":105.798769,
      "name":"Ôlala Cafe - Fastfood",
      "octime":"   08:00 AM - 10:00 PM",
      "rate":6.9,
      "type":"Café/Dessert",
      "id":"ry_o8Fopg"
   },
   "86":{
      "id_district":7,
      "id_type":2,
      "address":"Ngõ 48 Nguyễn Chánh",
      "district":"Quận Cầu Giấy",
      "image":"BJaiUtoTl_1.jpg",
      "lat":21.008641,
      "long":105.795017,
      "name":"JeUne Cafe",
      "octime":"  07:00 AM - 11:00 PM",
      "rate":7.4,
      "type":"Café/Dessert",
      "id":"BJaiUtoTl"
   },
   "87":{
      "id_district":7,
      "id_type":1,
      "address":"Tầng 1, Keangnam Landmark, E6 Phạm Hùng",
      "district":"Quận Cầu Giấy",
      "image":"HJm2Lto6e_1.jpg",
      "lat":21.0136782,
      "long":105.7851736,
      "name":"Hollywood Cafe - Keangnam Landmark",
      "octime":"  08:00 AM - 11:00 PM",
      "rate":7.1,
      "type":"Quán ăn",
      "id":"HJm2Lto6e"
   },
   "88":{
      "id_district":7,
      "id_type":2,
      "address":"9 Trần Quốc Hoàn",
      "district":"Quận Cầu Giấy",
      "image":"Sy6hUYiTl_1.jpg",
      "lat":21.041578662322,
      "long":105.788981616497,
      "name":"ONG Coffee",
      "octime":"  08:00 AM - 10:30 PM",
      "rate":8.8,
      "type":"Café/Dessert",
      "id":"Sy6hUYiTl"
   },
   "89":{
      "id_district":7,
      "id_type":2,
      "address":"126 Nguyễn Khang",
      "district":"Quận Cầu Giấy",
      "image":"rkXp8Fipx_1.jpg",
      "lat":21.0231465,
      "long":105.7984079,
      "name":"Min Coffee & Waffles",
      "octime":"  08:00 AM - 10:30 PM",
      "rate":7.2,
      "type":"Café/Dessert",
      "id":"rkXp8Fipx"
   },
   "90":{
      "id_district":7,
      "id_type":2,
      "address":"Ngõ 233 Tô Hiệu",
      "district":"Quận Cầu Giấy",
      "image":"Hy2TUYoTg_1.jpg",
      "lat":21.040878,
      "long":105.792739,
      "name":"Trịnh Ca Cafe - Tô Hiệu",
      "octime":"   07:00 AM - 11:00 PM",
      "rate":7,
      "type":"Café/Dessert",
      "id":"Hy2TUYoTg"
   },
   "91":{
      "id_district":7,
      "id_type":1,
      "address":"194 Trần Duy Hưng",
      "district":"Quận Cầu Giấy",
      "image":"B1M0IYiae_1.jpg",
      "lat":21.009018,
      "long":105.797357,
      "name":"Monaza - Nhà hàng, Cafe & Karaoke",
      "octime":"   07:00 AM - 11:30 PM",
      "rate":6.9,
      "type":"Quán ăn",
      "id":"B1M0IYiae"
   },
   "92":{
      "id_district":7,
      "id_type":2,
      "address":"Số 9, Lô 1G, Trung Yên 6",
      "district":"Quận Cầu Giấy",
      "image":"B1OCLtspl_1.jpg",
      "lat":21.0141681083742,
      "long":105.7983820885419,
      "name":"Tea Talk Cafe & Bakery",
      "octime":"   08:00 AM - 10:30 PM",
      "rate":7.8,
      "type":"Café/Dessert",
      "id":"B1OCLtspl"
   },
   "93":{
      "id_district":7,
      "id_type":2,
      "address":"3 Phố Duy Tân",
      "district":"Quận Cầu Giấy",
      "image":"ByeJvYoTl_1.jpg",
      "lat":21.030224,
      "long":105.786152,
      "name":"Maxx Cafe - Duy Tân",
      "octime":"  08:00 AM - 11:00 PM",
      "rate":7.6,
      "type":"Café/Dessert",
      "id":"ByeJvYoTl"
   },
   "94":{
      "id_district":7,
      "id_type":2,
      "address":"61 Ngõ 91 Trần Duy Hưng",
      "district":"Quận Cầu Giấy",
      "image":"SkBkwto6x_1.jpg",
      "lat":21.0086217308289,
      "long":105.8027182146906,
      "name":"Boyle's Coffee",
      "octime":"  07:30 AM - 10:30 PM",
      "rate":6.9,
      "type":"Café/Dessert",
      "id":"SkBkwto6x"
   },
   "95":{
      "id_district":7,
      "id_type":2,
      "address":"107 B12 Tô Hiệu",
      "district":"Quận Cầu Giấy",
      "image":"HJhyPFiae_1.jpg",
      "lat":21.0431454442928,
      "long":105.7962346449494,
      "name":"De Flore Cafe - Tô Hiệu",
      "octime":"  09:00 AM - 12:00 AM",
      "rate":7.5,
      "type":"Café/Dessert",
      "id":"HJhyPFiae"
   },
   "96":{
      "id_district":7,
      "id_type":2,
      "address":"16 Nguyễn Văn Huyên",
      "district":"Quận Cầu Giấy",
      "image":"BJflPKipe_1.jpg",
      "lat":21.03791361535,
      "long":105.7973652567336,
      "name":"CMND Cafe - Nguyễn Văn Huyên",
      "octime":"  07:00 AM - 11:00 PM",
      "rate":7.3,
      "type":"Café/Dessert",
      "id":"BJflPKipe"
   },
   "97":{
      "id_district":7,
      "id_type":2,
      "address":"70 Trần Vỹ",
      "district":"Quận Cầu Giấy",
      "image":"HkKlvFjax_1.jpg",
      "lat":21.040981,
      "long":105.773136,
      "name":"Green Coffee - Trần Vỹ",
      "octime":"  07:00 AM - 10:00 PM",
      "rate":8.3,
      "type":"Café/Dessert",
      "id":"HkKlvFjax"
   },
   "98":{
      "id_district":7,
      "id_type":2,
      "address":"16/233 Tô Hiệu",
      "district":"Quận Cầu Giấy",
      "image":"ry1-PYi6x_1.jpg",
      "lat":21.041161,
      "long":105.792457,
      "name":"Ga Phượt - Coffee, Pub, Tour",
      "octime":"  07:00 AM - 12:00 AM",
      "rate":8.8,
      "type":"Café/Dessert",
      "id":"ry1-PYi6x"
   },
   "99":{
      "id_district":7,
      "id_type":2,
      "address":"Toà Bắc E1 Chelsea Park",
      "district":"Quận Cầu Giấy",
      "image":"HkVbPtipl_1.jpg",
      "lat":21.019386,
      "long":105.793249,
      "name":"Tadibar Cafe & Lounge - Chelsea Park",
      "octime":"  08:00 AM - 11:00 PM",
      "rate":7.4,
      "type":"Café/Dessert",
      "id":"HkVbPtipl"
   },
   "100":{
      "id_district":7,
      "id_type":2,
      "address":"160 Nguyễn Khánh Toàn",
      "district":"Quận Cầu Giấy",
      "image":"Hy3ZDto6x_1.jpg",
      "lat":21.0377316,
      "long":105.8010737,
      "name":"The Coffee House - Nguyễn Khánh Toàn",
      "octime":"  07:00 AM - 11:00 PM",
      "rate":7.7,
      "type":"Café/Dessert",
      "id":"Hy3ZDto6x"
   },
   "101":{
      "id_district":7,
      "id_type":1,
      "address":"24T2 Hoàng Đạo Thúy",
      "district":"Quận Cầu Giấy",
      "image":"B1GMDtj6l_1.jpg",
      "lat":21.007471,
      "long":105.802529,
      "name":"My Way Cafe & Beer - 24T2 Hoàng Đạo Thúy",
      "octime":"   07:00 AM - 11:00 PM",
      "rate":6.8,
      "type":"Quán ăn",
      "id":"B1GMDtj6l"
   },
   "102":{
      "id_district":7,
      "id_type":2,
      "address":"N11A Ngõ 123 Trần Đăng Ninh",
      "district":"Quận Cầu Giấy",
      "image":"rktzPYiTe_1.jpg",
      "lat":21.0377485,
      "long":105.7934046,
      "name":"Thư Viện Café Đông Tây - Trần Đăng Ninh",
      "octime":"  07:00 AM - 10:00 PM",
      "rate":7.7,
      "type":"Café/Dessert",
      "id":"rktzPYiTe"
   },
   "103":{
      "id_district":7,
      "id_type":2,
      "address":"24 Nguyễn Khánh Toàn, P. Quan Hoa",
      "district":"Quận Cầu Giấy",
      "image":"rJm7wKopg_1.jpg",
      "lat":21.035567,
      "long":105.803823,
      "name":"An Cafe - Nguyễn Khánh Toàn",
      "octime":"   07:00 AM - 10:00 PM",
      "rate":7.8,
      "type":"Café/Dessert",
      "id":"rJm7wKopg"
   },
   "104":{
      "id_district":7,
      "id_type":2,
      "address":"40 Trần Quý Kiên, P. Dịch Vọng",
      "district":"Quận Cầu Giấy",
      "image":"r1_XPYiag_1.jpg",
      "lat":21.038029,
      "long":105.791897,
      "name":"Trung Nguyên Coffee - Trần Quý Kiên",
      "octime":"   07:00 AM - 09:30 PM",
      "rate":7.2,
      "type":"Café/Dessert",
      "id":"r1_XPYiag"
   },
   "105":{
      "id_district":7,
      "id_type":2,
      "address":"69 Nguyễn Khang",
      "district":"Quận Cầu Giấy",
      "image":"HyRmPFiTl_1.jpg",
      "lat":21.016994,
      "long":105.802674,
      "name":"Đạt Cafe",
      "octime":"   07:00 AM - 10:00 PM",
      "rate":8,
      "type":"Café/Dessert",
      "id":"HyRmPFiTl"
   },
   "106":{
      "id_district":7,
      "id_type":2,
      "address":"128 Trần Duy Hưng",
      "district":"Quận Cầu Giấy",
      "image":"ryVNDKope_1.jpg",
      "lat":21.01047,
      "long":105.799303,
      "name":"GM Cafe",
      "octime":"   07:00 AM - 11:00 PM",
      "rate":7.2,
      "type":"Café/Dessert",
      "id":"ryVNDKope"
   },
   "107":{
      "id_district":7,
      "id_type":2,
      "address":"107B9 Tô Hiệu",
      "district":"Quận Cầu Giấy",
      "image":"rJY4PKs6l_1.jpg",
      "lat":21.04251,
      "long":105.796044,
      "name":"Amazon Cafe",
      "octime":"   07:00 AM - 10:30 PM",
      "rate":7.3,
      "type":"Café/Dessert",
      "id":"rJY4PKs6l"
   },
   "108":{
      "id_district":7,
      "id_type":2,
      "address":"275 Trung Kính",
      "district":"Quận Cầu Giấy",
      "image":"r1ESDFiax_1.jpg",
      "lat":21.015276,
      "long":105.794917,
      "name":"AZ Cafe",
      "octime":"   08:00 AM - 10:00 PM",
      "rate":9.2,
      "type":"Café/Dessert",
      "id":"r1ESDFiax"
   },
   "109":{
      "id_district":7,
      "id_type":2,
      "address":"455 Nguyễn Khang",
      "district":"Quận Cầu Giấy",
      "image":"B1qHvtsTe_1.jpg",
      "lat":21.029463,
      "long":105.800479,
      "name":"Film 3D Box Cafe",
      "octime":"   08:00 AM - 11:00 PM",
      "rate":8.6,
      "type":"Café/Dessert",
      "id":"B1qHvtsTe"
   },
   "110":{
      "id_district":7,
      "id_type":2,
      "address":"27 Ngõ 83 Trần Duy Hưng",
      "district":"Quận Cầu Giấy",
      "image":"rJQIDtiTe_1.jpg",
      "lat":21.0109744516859,
      "long":105.8010381460189,
      "name":"Valencia - Cafe Bar & Fastfood",
      "octime":"  07:00 AM - 10:30 PM",
      "rate":6.9,
      "type":"Café/Dessert",
      "id":"rJQIDtiTe"
   },
   "111":{
      "id_district":7,
      "id_type":2,
      "address":"36 Duy Tân",
      "district":"Quận Cầu Giấy",
      "image":"Sy_UPYopg_1.jpg",
      "lat":21.03104,
      "long":105.784056,
      "name":"La Vita Coffee",
      "octime":"   07:00 AM - 10:00 PM",
      "rate":6.2,
      "type":"Café/Dessert",
      "id":"Sy_UPYopg"
   },
   "112":{
      "id_district":7,
      "id_type":2,
      "address":"84 Doãn Kế Thiện",
      "district":"Quận Cầu Giấy",
      "image":"H1QvDtsTx_1.jpg",
      "lat":21.0420264501037,
      "long":105.7753938809037,
      "name":"Fun Coffee - Doãn Kế Thiện",
      "octime":"  07:30 AM - 10:30 PM",
      "rate":7.1,
      "type":"Café/Dessert",
      "id":"H1QvDtsTx"
   },
   "113":{
      "id_district":7,
      "id_type":2,
      "address":"136 Xuân Thủy ",
      "district":"Quận Cầu Giấy",
      "image":"Bk5Dvts6l_1.jpg",
      "lat":21.0367750858411,
      "long":105.7836974628086,
      "name":"Dynamic Cafe - Xuân Thủy",
      "octime":"   06:30 AM - 10:00 PM",
      "rate":6.8,
      "type":"Café/Dessert",
      "id":"Bk5Dvts6l"
   },
   "114":{
      "id_district":7,
      "id_type":2,
      "address":"66 Nguyễn Văn Huyên",
      "district":"Quận Cầu Giấy",
      "image":"Bk1uvtopg_1.jpg",
      "lat":21.041288,
      "long":105.79776,
      "name":"Helio Cafe - Nguyễn Văn Huyên",
      "octime":"  08:00 AM - 10:30 PM",
      "rate":7,
      "type":"Café/Dessert",
      "id":"Bk1uvtopg"
   },
   "115":{
      "id_district":7,
      "id_type":2,
      "address":"6 Ngõ 48 Nguyễn Chánh",
      "district":"Quận Cầu Giấy",
      "image":"B1SuwKspg_1.jpg",
      "lat":21.0095116999999,
      "long":105.7949777,
      "name":"Bank Cafe - Nguyễn Chánh",
      "octime":"  08:00 AM - 10:30 PM",
      "rate":7.3,
      "type":"Café/Dessert",
      "id":"B1SuwKspg"
   },
   "116":{
      "id_district":7,
      "id_type":2,
      "address":"96 Chùa Hà",
      "district":"Quận Cầu Giấy",
      "image":"rJ5dPYs6g_1.jpg",
      "lat":21.037168,
      "long":105.794815,
      "name":"New Wind Cafe - Chùa Hà",
      "octime":"   07:00 AM - 11:00 PM",
      "rate":6.8,
      "type":"Café/Dessert",
      "id":"rJ5dPYs6g"
   },
   "117":{
      "id_district":7,
      "id_type":2,
      "address":"Tầng 5, 21A Nguyễn Khang",
      "district":"Quận Cầu Giấy",
      "image":"SyJKwYi6e_1.jpg",
      "lat":21.0160622362291,
      "long":105.8035165071487,
      "name":"Ruby Coffee Shisha - Nguyễn Khang",
      "octime":"   08:00 AM - 11:30 PM",
      "rate":7.9,
      "type":"Café/Dessert",
      "id":"SyJKwYi6e"
   },
   "118":{
      "id_district":7,
      "id_type":2,
      "address":"Toà Nhà FPT Duy Tân ",
      "district":"Quận Cầu Giấy",
      "image":"HkSFvtiTl_1.jpg",
      "lat":21.0309990888256,
      "long":105.782850086689,
      "name":"HAN's Cafe - Duy Tân",
      "octime":"  09:00 AM - 09:00 PM",
      "rate":6.7,
      "type":"Café/Dessert",
      "id":"HkSFvtiTl"
   },
   "119":{
      "id_district":7,
      "id_type":2,
      "address":"77 Nguyễn Phong Sắc",
      "district":"Quận Cầu Giấy",
      "image":"S1qFPKjTg_1.jpg",
      "lat":21.0375306747847,
      "long":105.7900558412075,
      "name":"S.T.U Coffee - Nguyễn Phong Sắc",
      "octime":"  08:00 AM - 11:00 PM",
      "rate":7.3,
      "type":"Café/Dessert",
      "id":"S1qFPKjTg"
   },
   "120":{
      "id_district":7,
      "id_type":2,
      "address":"3 Đường Bờ Sông Quan Hoa",
      "district":"Quận Cầu Giấy",
      "image":"HylcvtsTg_1.jpg",
      "lat":21.030574,
      "long":105.801408,
      "name":"Mộc Cafe - Quan Hoa",
      "octime":"   07:00 AM - 10:00 PM",
      "rate":7.4,
      "type":"Café/Dessert",
      "id":"HylcvtsTg"
   },
   "121":{
      "id_district":7,
      "id_type":2,
      "address":"2 Ngõ 260",
      "district":"Quận Cầu Giấy",
      "image":"BkBcwFsag_1.jpg",
      "lat":21.034497,
      "long":105.796029,
      "name":"2! Smile Cafe - Sinh Tố, Nước Ép, Hoa Quả, Kem",
      "octime":"   07:00 AM - 10:00 PM",
      "rate":7.2,
      "type":"Café/Dessert",
      "id":"BkBcwFsag"
   },
   "122":{
      "id_district":7,
      "id_type":2,
      "address":"108 Hoàng Ngân",
      "district":"Quận Cầu Giấy",
      "image":"B19cwYipe_1.jpg",
      "lat":21.0091710257685,
      "long":105.8069886267185,
      "name":"Pallet Cafe",
      "octime":"  09:00 AM - 10:00 PM",
      "rate":7.6,
      "type":"Café/Dessert",
      "id":"B19cwYipe"
   },
   "123":{
      "id_district":7,
      "id_type":2,
      "address":"15 Nguyễn Khang",
      "district":"Quận Cầu Giấy",
      "image":"HyeivYjpx_1.jpg",
      "lat":21.0154309,
      "long":105.8034013,
      "name":"LÔ Cafe",
      "octime":"  07:30 AM - 10:30 PM",
      "rate":7.7,
      "type":"Café/Dessert",
      "id":"HyeivYjpx"
   },
   "124":{
      "id_district":7,
      "id_type":2,
      "address":"1 Nguyễn Văn Huyên",
      "district":"Quận Cầu Giấy",
      "image":"S1SjvKs6l_1.jpg",
      "lat":21.044483,
      "long":105.797465,
      "name":"Star Cafe",
      "octime":"    08:00 PM - 11:00 PM",
      "rate":6.8,
      "type":"Café/Dessert",
      "id":"S1SjvKs6l"
   },
   "125":{
      "id_district":7,
      "id_type":2,
      "address":"1A11 Ngõ 235 Trần Quốc Hoàn",
      "district":"Quận Cầu Giấy",
      "image":"SJoivYspl_1.jpg",
      "lat":21.0417461,
      "long":105.7831562999999,
      "name":"Unity Drinks Coffee",
      "octime":"  07:00 AM - 10:30 PM",
      "rate":7.6,
      "type":"Café/Dessert",
      "id":"SJoivYspl"
   },
   "126":{
      "id_district":7,
      "id_type":2,
      "address":"1 Ngõ 106 Hoàng Quốc Việt",
      "district":"Quận Cầu Giấy",
      "image":"S1lhPYiax_1.jpg",
      "lat":21.0467405004333,
      "long":105.7945673167705,
      "name":"Link Cafe & Deli",
      "octime":"  09:00 AM - 10:00 PM",
      "rate":7,
      "type":"Café/Dessert",
      "id":"S1lhPYiax"
   },
   "127":{
      "id_district":7,
      "id_type":2,
      "address":"102 C8, Ngõ Đối Diện 299 Tô Hiệu",
      "district":"Quận Cầu Giấy",
      "image":"Hyr3PKopl_1.jpg",
      "lat":21.042106,
      "long":105.790633,
      "name":"ENVK Studio Coffee",
      "octime":"  08:00 AM - 10:00 PM",
      "rate":7,
      "type":"Café/Dessert",
      "id":"Hyr3PKopl"
   },
   "128":{
      "id_district":7,
      "id_type":2,
      "address":"Tầng 4, Tòa Nhà CTM Palace, 131 Nguyễn Phong Sắc",
      "district":"Quận Cầu Giấy",
      "image":"S1T2Ptspx_1.jpg",
      "lat":21.04248,
      "long":105.79003,
      "name":"Penthouse Coffee",
      "octime":"  10:00 AM - 11:00 PM",
      "rate":5.8,
      "type":"Café/Dessert",
      "id":"S1T2Ptspx"
   },
   "129":{
      "id_district":7,
      "id_type":2,
      "address":"13 Ngõ 41 Trần Duy Hưng",
      "district":"Quận Cầu Giấy",
      "image":"BJmavYsae_1.jpg",
      "lat":21.01243,
      "long":105.802585,
      "name":"Su Kem Cafe - Trần Duy Hưng",
      "octime":"  07:00 AM - 10:00 PM",
      "rate":8.6,
      "type":"Café/Dessert",
      "id":"BJmavYsae"
   },
   "130":{
      "id_district":7,
      "id_type":2,
      "address":"Rooftop, Tầng 72 Keangnam Landmark, E6 Phạm Hùng",
      "district":"Quận Cầu Giấy",
      "image":"HJ9pPKspx_1.jpg",
      "lat":21.01692,
      "long":105.783159,
      "name":"Vpresso Cafe - Tầng 72 Keangnam Landmark",
      "octime":"  10:00 AM - 10:00 PM",
      "rate":7.7,
      "type":"Café/Dessert",
      "id":"HJ9pPKspx"
   },
   "131":{
      "id_district":7,
      "id_type":2,
      "address":"2A1 TT9 Đại Học Ngoại Ngữ Hà Nội",
      "district":"Quận Cầu Giấy",
      "image":"HJm0wKjTl_1.jpg",
      "lat":21.041644,
      "long":105.785997,
      "name":"Hummingbird Coffee Shop - Đại Học Ngoại Ngữ",
      "octime":"  07:00 AM - 10:00 PM",
      "rate":7,
      "type":"Café/Dessert",
      "id":"HJm0wKjTl"
   },
   "132":{
      "id_district":7,
      "id_type":2,
      "address":"19 Nguyễn Khang",
      "district":"Quận Cầu Giấy",
      "image":"r1uRwYo6x_1.jpg",
      "lat":21.0156290802292,
      "long":105.803802832961,
      "name":"Xưởng Cafe - Nguyễn Khang",
      "octime":"  08:00 AM - 09:30 PM",
      "rate":7.7,
      "type":"Café/Dessert",
      "id":"r1uRwYo6x"
   },
   "133":{
      "id_district":7,
      "id_type":1,
      "address":"B1 Tòa Nhà Charmvit, 117 Trần Duy Hưng",
      "district":"Quận Cầu Giấy",
      "image":"SkCCDtiae_1.jpg",
      "lat":21.0079218,
      "long":105.7974211,
      "name":"Little Angels Foods & Cafe",
      "octime":"  07:00 AM - 11:30 PM",
      "rate":8.6,
      "type":"Quán ăn",
      "id":"SkCCDtiae"
   },
   "134":{
      "id_district":7,
      "id_type":2,
      "address":"20 Ngõ 43 Doãn Kế Thiện",
      "district":"Quận Cầu Giấy",
      "image":"HyN1OFoag_1.jpg",
      "lat":21.0415062,
      "long":105.7772164,
      "name":"20+ Cafe - Doãn Kế Thiện",
      "octime":"  08:00 AM - 11:00 PM",
      "rate":7.9,
      "type":"Café/Dessert",
      "id":"HyN1OFoag"
   },
   "135":{
      "id_district":7,
      "id_type":2,
      "address":"6 Ngõ 169 Doãn Kế Thiện, Cầu Giấy",
      "district":"Quận Cầu Giấy",
      "image":"SJqkdYiTg_1.jpg",
      "lat":21.041275,
      "long":105.77671,
      "name":"Erato Coffee",
      "octime":"  09:00 AM - 10:00 PM",
      "rate":7.8,
      "type":"Café/Dessert",
      "id":"SJqkdYiTg"
   },
   "136":{
      "id_district":7,
      "id_type":2,
      "address":"36 Trung Hòa",
      "district":"Quận Cầu Giấy",
      "image":"BJgluYoTg_1.jpg",
      "lat":21.014832,
      "long":105.801396,
      "name":"Galaxy Cafe",
      "octime":"   07:00 AM - 11:00 PM",
      "rate":7.6,
      "type":"Café/Dessert",
      "id":"BJgluYoTg"
   },
   "137":{
      "id_district":7,
      "id_type":2,
      "address":"Lô 5 KĐT Nam Trung Yên, P. Yên Hoà",
      "district":"Quận Cầu Giấy",
      "image":"Hy8e_tsae_1.jpg",
      "lat":21.0183657036485,
      "long":105.7850950956344,
      "name":"Violet Cafe",
      "octime":"  06:00 AM - 11:00 PM",
      "rate":8.4,
      "type":"Café/Dessert",
      "id":"Hy8e_tsae"
   },
   "138":{
      "id_district":7,
      "id_type":2,
      "address":"6 C6 Trần Quốc Hoàn",
      "district":"Quận Cầu Giấy",
      "image":"rJpgOtiTl_1.jpg",
      "lat":21.0412,
      "long":105.7819999999999,
      "name":"Talk Coffee",
      "octime":"  07:00 AM - 10:00 PM",
      "rate":7.4,
      "type":"Café/Dessert",
      "id":"rJpgOtiTl"
   },
   "139":{
      "id_district":7,
      "id_type":2,
      "address":"106 B9 Tô Hiệu",
      "district":"Quận Cầu Giấy",
      "image":"BkG-Otspg_1.jpg",
      "lat":21.0424044557925,
      "long":105.7956697046756,
      "name":"Passion Coffee",
      "octime":"  07:30 AM - 10:30 PM",
      "rate":6.8,
      "type":"Café/Dessert",
      "id":"BkG-Otspg"
   },
   "140":{
      "id_district":7,
      "id_type":2,
      "address":"Lô 5 KĐT Nam Trung Yên, P. Yên Hoà",
      "district":"Quận Cầu Giấy",
      "image":"rkUbOFjax_1.jpg",
      "lat":21.0183657036485,
      "long":105.7850950956344,
      "name":"Violet Cafe",
      "octime":"  06:00 AM - 11:00 PM",
      "rate":8.4,
      "type":"Café/Dessert",
      "id":"rkUbOFjax"
   },
   "141":{
      "id_district":7,
      "id_type":2,
      "address":"83 Trần Tử Bình",
      "district":"Quận Cầu Giấy",
      "image":"rypZuFoTl_1.jpg",
      "lat":21.0362368,
      "long":105.7905825,
      "name":"Cafe 83",
      "octime":"  07:00 AM - 12:00 AM",
      "rate":8.4,
      "type":"Café/Dessert",
      "id":"rypZuFoTl"
   },
   "142":{
      "id_district":7,
      "id_type":2,
      "address":"22 Nguyễn Thị Định",
      "district":"Quận Cầu Giấy",
      "image":"SyMzuKo6e_1.jpg",
      "lat":21.006899341618,
      "long":105.8058802038431,
      "name":"Teeng Coffee",
      "octime":"  07:00 AM - 10:00 PM",
      "rate":8,
      "type":"Café/Dessert",
      "id":"SyMzuKo6e"
   },
   "143":{
      "id_district":7,
      "id_type":2,
      "address":"2 Ngõ 105 Hồ Tùng Mậu",
      "district":"Quận Cầu Giấy",
      "image":"rkPGOKi6e_1.jpg",
      "lat":21.0356055264684,
      "long":105.7760966196656,
      "name":"Paradise Coffee",
      "octime":"  07:30 AM - 11:00 PM",
      "rate":9.2,
      "type":"Café/Dessert",
      "id":"rkPGOKi6e"
   },
   "144":{
      "id_district":7,
      "id_type":2,
      "address":"17T7 Hoàng Đạo Thúy",
      "district":"Quận Cầu Giấy",
      "image":"Hy6Guts6g_1.jpg",
      "lat":21.00929,
      "long":105.800739,
      "name":"Budest Cafe - Hoàng Đạo Thúy",
      "octime":"   0:00 - 0:00",
      "rate":7.5,
      "type":"Café/Dessert",
      "id":"Hy6Guts6g"
   },
   "145":{
      "id_district":7,
      "id_type":2,
      "address":"45 M2, Ngõ 37 Trần Kim Xuyến, P. Yên Hòa",
      "district":"Quận Cầu Giấy",
      "image":"Skz7Otsae_1.jpg",
      "lat":21.0183358,
      "long":105.794676,
      "name":"Home Cafe - Trần Kim Xuyến",
      "octime":"  08:00 AM - 10:00 PM",
      "rate":7.9,
      "type":"Café/Dessert",
      "id":"Skz7Otsae"
   },
   "146":{
      "id_district":7,
      "id_type":2,
      "address":"4 Ngõ 15 Trung Kính",
      "district":"Quận Cầu Giấy",
      "image":"HJAQuFjpg_1.jpg",
      "lat":21.0132179840301,
      "long":105.801824036029,
      "name":"Ngõ Quán Cafe - Trung Kính",
      "octime":"  07:30 AM - 11:00 PM",
      "rate":8.5,
      "type":"Café/Dessert",
      "id":"HJAQuFjpg"
   },
   "147":{
      "id_district":7,
      "id_type":2,
      "address":"Tầng 1, Toà Nhà IC, 82 Duy Tân",
      "district":"Quận Cầu Giấy",
      "image":"rJL4uFjTg_1.jpg",
      "lat":21.0314628684102,
      "long":105.7824417203664,
      "name":"IC Cafe - Duy Tân",
      "octime":"  06:00 AM - 09:30 PM",
      "rate":7.3,
      "type":"Café/Dessert",
      "id":"rJL4uFjTg"
   },
   "148":{
      "id_district":7,
      "id_type":2,
      "address":"27 Trần Bình",
      "district":"Quận Cầu Giấy",
      "image":"r1qEOKsae_1.jpg",
      "lat":21.035753,
      "long":105.77882,
      "name":"Daisy's Cafe",
      "octime":"  07:30 AM - 10:00 PM",
      "rate":6.6,
      "type":"Café/Dessert",
      "id":"r1qEOKsae"
   },
   "149":{
      "id_district":7,
      "id_type":2,
      "address":"14 Tô Hiệu",
      "district":"Quận Cầu Giấy",
      "image":"r1kBdKope_1.jpg",
      "lat":21.0456577171265,
      "long":105.796686627782,
      "name":"Pure - Juice,Tea & Coffee",
      "octime":"  08:00 AM - 09:00 PM",
      "rate":9.2,
      "type":"Café/Dessert",
      "id":"r1kBdKope"
   },
   "150":{
      "id_district":7,
      "id_type":2,
      "address":"14 Tô Hiệu",
      "district":"Quận Cầu Giấy",
      "image":"BySBdKjax_1.jpg",
      "lat":21.0456577171265,
      "long":105.796686627782,
      "name":"Pure - Juice,Tea & Coffee",
      "octime":"  08:00 AM - 09:00 PM",
      "rate":9.2,
      "type":"Café/Dessert",
      "id":"BySBdKjax"
   },
   "151":{
      "id_district":7,
      "id_type":2,
      "address":"88 Hồ Tùng Mậu",
      "district":"Quận Cầu Giấy",
      "image":"H1xL_tsTg_1.jpg",
      "lat":21.036749,
      "long":105.7779,
      "name":"Goky - Tea Coffee & Juice - Hồ Tùng Mậu",
      "octime":"  07:00 AM - 11:00 PM",
      "rate":6.5,
      "type":"Café/Dessert",
      "id":"H1xL_tsTg"
   },
   "152":{
      "id_district":7,
      "id_type":2,
      "address":"58 Hoàng Quốc Việt",
      "district":"Quận Cầu Giấy",
      "image":"SJS8dKiag_1.jpg",
      "lat":21.046295,
      "long":105.797331,
      "name":"Ban Mai Cafe - Hoàng Quốc Việt",
      "octime":"   07:00 AM - 10:30 PM",
      "rate":7.6,
      "type":"Café/Dessert",
      "id":"SJS8dKiag"
   },
   "153":{
      "id_district":7,
      "id_type":2,
      "address":"Tầng 1, TTC Tower, 19 Duy Tân",
      "district":"Quận Cầu Giấy",
      "image":"Hk5U_Fs6g_1.jpg",
      "lat":21.029339,
      "long":105.785522,
      "name":"Napoli Coffee",
      "octime":"  07:30 AM - 10:30 PM",
      "rate":6,
      "type":"Café/Dessert",
      "id":"Hk5U_Fs6g"
   },
   "154":{
      "id_district":7,
      "id_type":2,
      "address":"377 Nguyễn Khang",
      "district":"Quận Cầu Giấy",
      "image":"By1wOYoTe_1.jpg",
      "lat":21.026658,
      "long":105.797948,
      "name":"Tre Cafe",
      "octime":"   07:00 AM - 11:00 PM",
      "rate":7.2,
      "type":"Café/Dessert",
      "id":"By1wOYoTe"
   },
   "155":{
      "id_district":7,
      "id_type":2,
      "address":"475 Nguyễn Khang",
      "district":"Quận Cầu Giấy",
      "image":"HkEvuFo6l_1.jpg",
      "lat":21.029772,
      "long":105.800743,
      "name":"The Garden Cafe",
      "octime":"   07:00 AM - 10:00 PM",
      "rate":8.6,
      "type":"Café/Dessert",
      "id":"HkEvuFo6l"
   },
   "156":{
      "id_district":7,
      "id_type":2,
      "address":"38 Duy Tân",
      "district":"Quận Cầu Giấy",
      "image":"r1FvdKsae_1.jpg",
      "lat":21.030758,
      "long":105.785304,
      "name":"Bình Nhi Cafe",
      "octime":"   07:00 AM - 11:00 PM",
      "rate":8.6,
      "type":"Café/Dessert",
      "id":"r1FvdKsae"
   },
   "157":{
      "id_district":7,
      "id_type":2,
      "address":"12 Duy Tân",
      "district":"Quận Cầu Giấy",
      "image":"Hkk_utoag_1.jpg",
      "lat":21.030634,
      "long":105.785766,
      "name":"Huyền Cafe - Duy Tân",
      "octime":"   07:00 AM - 10:30 PM",
      "rate":6.6,
      "type":"Café/Dessert",
      "id":"Hkk_utoag"
   },
   "158":{
      "id_district":7,
      "id_type":2,
      "address":"1 Nguyễn Văn Huyên",
      "district":"Quận Cầu Giấy",
      "image":"r1Sddtjag_1.jpg",
      "lat":21.044483,
      "long":105.797465,
      "name":"3X Cafe",
      "octime":"   08:00 AM - 11:00 PM",
      "rate":7,
      "type":"Café/Dessert",
      "id":"r1Sddtjag"
   },
   "159":{
      "id_district":7,
      "id_type":2,
      "address":"101 B1 Mai Dịch ",
      "district":"Quận Cầu Giấy",
      "image":"B19uuYipg_1.jpg",
      "lat":21.039007,
      "long":105.774211,
      "name":"Lâm Trang Cafe",
      "octime":"   07:00 AM - 10:00 PM",
      "rate":6.8,
      "type":"Café/Dessert",
      "id":"B19uuYipg"
   },
   "160":{
      "id_district":7,
      "id_type":2,
      "address":"8 Dịch Vọng Hậu",
      "district":"Quận Cầu Giấy",
      "image":"H1ytutj6l_1.jpg",
      "lat":21.0335026,
      "long":105.7878054,
      "name":"Cỏ May Cafe",
      "octime":"  08:00 AM - 10:00 PM",
      "rate":5.1,
      "type":"Café/Dessert",
      "id":"H1ytutj6l"
   },
   "161":{
      "id_district":7,
      "id_type":2,
      "address":"8 Dịch Vọng Hậu",
      "district":"Quận Cầu Giấy",
      "image":"Bk4YdKiTe_1.jpg",
      "lat":21.0335026,
      "long":105.7878054,
      "name":"Cỏ May Cafe",
      "octime":"  08:00 AM - 10:00 PM",
      "rate":5.1,
      "type":"Café/Dessert",
      "id":"Bk4YdKiTe"
   },
   "162":{
      "id_district":7,
      "id_type":2,
      "address":"16 Nguyễn Thị Định",
      "district":"Quận Cầu Giấy",
      "image":"BycFutoax_1.jpg",
      "lat":21.0067982449226,
      "long":105.8058996498584,
      "name":"Xu One Coffee",
      "octime":"  08:00 AM - 10:30 PM",
      "rate":7,
      "type":"Café/Dessert",
      "id":"BycFutoax"
   },
   "163":{
      "id_district":7,
      "id_type":1,
      "address":"C2-3 Tòa Madarin Garden, Nguyễn Thị Thập, P. Trung Hòa",
      "district":"Quận Cầu Giấy",
      "image":"S1kqOts6x_1.jpg",
      "lat":21.004910259377,
      "long":105.7994677126407,
      "name":"Rando - Coffee & Restaurant",
      "octime":"  07:00 AM - 10:30 PM",
      "rate":7,
      "type":"Quán ăn",
      "id":"S1kqOts6x"
   },
   "164":{
      "id_district":7,
      "id_type":2,
      "address":"387 Hoàng Quốc Việt",
      "district":"Quận Cầu Giấy",
      "image":"ByV5utopl_1.jpg",
      "lat":21.046015,
      "long":105.792375,
      "name":"Luna Cafe - Hoàng Quốc Việt",
      "octime":"   07:30 AM - 11:00 PM",
      "rate":7.4,
      "type":"Café/Dessert",
      "id":"ByV5utopl"
   },
   "165":{
      "id_district":7,
      "id_type":2,
      "address":"33 Nguyễn Khả Trạc ",
      "district":"Quận Cầu Giấy",
      "image":"BJYcOtopl_1.jpg",
      "lat":21.044918,
      "long":105.776736,
      "name":"Mai Trang Cafe - Nguyễn Khả Trạc",
      "octime":"   07:00 AM - 10:00 PM",
      "rate":8,
      "type":"Café/Dessert",
      "id":"BJYcOtopl"
   },
   "166":{
      "id_district":7,
      "id_type":2,
      "address":"347 Nguyễn Khang",
      "district":"Quận Cầu Giấy",
      "image":"SyA9_FiTl_1.jpg",
      "lat":21.026149,
      "long":105.797753,
      "name":"Điểm Hẹn Sài Gòn Cafe",
      "octime":"   07:15 AM - 11:00 PM",
      "rate":7.3,
      "type":"Café/Dessert",
      "id":"SyA9_FiTl"
   },
   "167":{
      "id_district":7,
      "id_type":1,
      "address":"24 Duy Tân",
      "district":"Quận Cầu Giấy",
      "image":"By_iOFopx_1.jpg",
      "lat":21.028543,
      "long":105.794719,
      "name":"Bab - Cafe Nhà Hàng Hàn Quốc",
      "octime":"   07:00 AM - 10:00 PM",
      "rate":8.1,
      "type":"Quán ăn",
      "id":"By_iOFopx"
   },
   "168":{
      "id_district":7,
      "id_type":2,
      "address":"1 Lô 1A, Vũ Phạm Hàm",
      "district":"Quận Cầu Giấy",
      "image":"rJg3dKopx_1.jpg",
      "lat":21.014364,
      "long":105.796038,
      "name":"Gugi Cafe - Vũ Phạm Hàm",
      "octime":"  07:00 AM - 10:30 PM",
      "rate":7.7,
      "type":"Café/Dessert",
      "id":"rJg3dKopx"
   },
   "169":{
      "id_district":7,
      "id_type":2,
      "address":"8 Ngõ 7 Phùng Chí Kiên, P. Nghĩa Đô",
      "district":"Quận Cầu Giấy",
      "image":"H1Lh_Ki6l_1.jpg",
      "lat":21.0429792,
      "long":105.8031958,
      "name":"Nude Coffee & Fast Food",
      "octime":"  06:30 AM - 11:00 PM",
      "rate":8.6,
      "type":"Café/Dessert",
      "id":"H1Lh_Ki6l"
   },
   "170":{
      "id_district":7,
      "id_type":2,
      "address":"8 Nguyễn Thị Định",
      "district":"Quận Cầu Giấy",
      "image":"H1jn_Fjpl_1.jpg",
      "lat":21.0068696419877,
      "long":105.8058687873108,
      "name":"Cafe Nhân - Nguyễn Thị Định",
      "octime":"  07:00 AM - 10:30 PM",
      "rate":7.4,
      "type":"Café/Dessert",
      "id":"H1jn_Fjpl"
   },
   "171":{
      "id_district":7,
      "id_type":2,
      "address":"199 Doãn Kế Thiện",
      "district":"Quận Cầu Giấy",
      "image":"r1lTdtsax_1.jpg",
      "lat":21.041749,
      "long":105.776106,
      "name":"Red Cafe - Doãn Kế Thiện",
      "octime":"  07:00 AM - 11:00 PM",
      "rate":7.6,
      "type":"Café/Dessert",
      "id":"r1lTdtsax"
   },
   "172":{
      "id_district":7,
      "id_type":2,
      "address":"18 Ngõ 48 Nguyễn Chánh",
      "district":"Quận Cầu Giấy",
      "image":"ryvTuFs6e_1.jpg",
      "lat":21.009351932719,
      "long":105.7948046922683,
      "name":"FG Coffee & Bánh Cuốn Lạng Sơn",
      "octime":"  09:00 AM - 10:00 PM",
      "rate":7.3,
      "type":"Café/Dessert",
      "id":"ryvTuFs6e"
   },
   "173":{
      "id_district":7,
      "id_type":2,
      "address":"72 Hoàng Sâm",
      "district":"Quận Cầu Giấy",
      "image":"BynpOFiTg_1.jpg",
      "lat":21.044401,
      "long":105.799389,
      "name":"True Coffee - Hoàng Sâm",
      "octime":"  07:00 AM - 10:00 PM",
      "rate":8.2,
      "type":"Café/Dessert",
      "id":"BynpOFiTg"
   },
   "174":{
      "id_district":7,
      "id_type":2,
      "address":"N09B1 KĐT Mới Dịch Vọng",
      "district":"Quận Cầu Giấy",
      "image":"SyWAdtiTg_1.jpg",
      "lat":21.0287117,
      "long":105.7938732,
      "name":"Trang Cafe - Dịch Vọng",
      "octime":"  08:00 AM - 10:30 PM",
      "rate":7.6,
      "type":"Café/Dessert",
      "id":"SyWAdtiTg"
   },
   "175":{
      "id_district":7,
      "id_type":2,
      "address":"Lô 2E Duy Tân",
      "district":"Quận Cầu Giấy",
      "image":"H180uKs6l_1.jpg",
      "lat":21.031152,
      "long":105.782846,
      "name":"Ngọc Hoa - Cafe & Cơm Văn Phòng",
      "octime":"  07:00 AM - 10:30 PM",
      "rate":7.3,
      "type":"Café/Dessert",
      "id":"H180uKs6l"
   },
   "176":{
      "id_district":7,
      "id_type":2,
      "address":"9 Tô Hiệu, P. Nghĩa Tân",
      "district":"Quận Cầu Giấy",
      "image":"r1s0dYoTg_1.jpg",
      "lat":21.0457764243502,
      "long":105.796698667109,
      "name":"Du Ca Cafe",
      "octime":"  09:00 AM - 11:00 PM",
      "rate":7,
      "type":"Café/Dessert",
      "id":"r1s0dYoTg"
   },
   "177":{
      "id_district":7,
      "id_type":2,
      "address":"5 Trần Kim Xuyến",
      "district":"Quận Cầu Giấy",
      "image":"S1lJtFs6l_1.jpg",
      "lat":21.018061,
      "long":105.796065,
      "name":"GaraFun Cafe - Trần Kim Xuyến",
      "octime":"  07:00 AM - 10:30 PM",
      "rate":7.7,
      "type":"Café/Dessert",
      "id":"S1lJtFs6l"
   },
   "178":{
      "id_district":7,
      "id_type":1,
      "address":"Kiốt 4, 144 Xuân Thủy",
      "district":"Quận Cầu Giấy",
      "image":"SJUJYYipg_1.jpg",
      "lat":21.0366970481875,
      "long":105.7828559781876,
      "name":"Ô4 Gateaux - Cafe & Ăn Vặt",
      "octime":"  07:30 AM - 10:30 PM",
      "rate":7.2,
      "type":"Quán ăn",
      "id":"SJUJYYipg"
   },
   "179":{
      "id_district":7,
      "id_type":1,
      "address":"BT09 Trung Yên 6",
      "district":"Quận Cầu Giấy",
      "image":"ry2yKYiTg_1.jpg",
      "lat":21.017444,
      "long":105.800413,
      "name":"Nhà Hàng Rocks - Steak & Cafe",
      "octime":"  09:00 AM - 10:00 PM",
      "rate":7.7,
      "type":"Quán ăn",
      "id":"ry2yKYiTg"
   },
   "180":{
      "id_district":7,
      "id_type":2,
      "address":"7 Trần Quốc Hoàn",
      "district":"Quận Cầu Giấy",
      "image":"rJXgFFo6l_1.jpg",
      "lat":21.041629,
      "long":105.789242,
      "name":"Kmax Cafe",
      "octime":"   07:00 AM - 10:00 PM",
      "rate":6,
      "type":"Café/Dessert",
      "id":"rJXgFFo6l"
   },
   "181":{
      "id_district":7,
      "id_type":2,
      "address":"T1 Tòa 15 Phạm Hùng",
      "district":"Quận Cầu Giấy",
      "image":"HJYgKtipl_1.jpg",
      "lat":21.0289176958712,
      "long":105.7801340147852,
      "name":"Sagaso Cafe",
      "octime":"  08:00 AM - 11:00 PM",
      "rate":3.4,
      "type":"Café/Dessert",
      "id":"HJYgKtipl"
   },
   "182":{
      "id_district":7,
      "id_type":2,
      "address":"20 Đông Quan",
      "district":"Quận Cầu Giấy",
      "image":"Sk0eYFo6e_1.jpg",
      "lat":21.039848,
      "long":105.805413,
      "name":"Sam Cafe - Đông Quan",
      "octime":"   08:00 AM - 10:30 PM",
      "rate":7.2,
      "type":"Café/Dessert",
      "id":"Sk0eYFo6e"
   },
   "183":{
      "id_district":7,
      "id_type":2,
      "address":"215 Tô Hiệu",
      "district":"Quận Cầu Giấy",
      "image":"SkGWKFjpe_1.jpg",
      "lat":21.0410666,
      "long":105.793357,
      "name":"Trung Nguyên Mộc Quán Cafe",
      "octime":"  07:00 AM - 10:30 PM",
      "rate":7.5,
      "type":"Café/Dessert",
      "id":"SkGWKFjpe"
   },
   "184":{
      "id_district":7,
      "id_type":2,
      "address":"Tầng 1, Star Tower, Lô D32, KĐT Mới Cầu Giấy",
      "district":"Quận Cầu Giấy",
      "image":"BkO-ttjpe_1.jpg",
      "lat":21.0251457034016,
      "long":105.7912319898605,
      "name":"Star Coffee - Star Tower",
      "octime":"  07:00 AM - 10:00 PM",
      "rate":6.8,
      "type":"Café/Dessert",
      "id":"BkO-ttjpe"
   },
   "185":{
      "id_district":7,
      "id_type":2,
      "address":"21 Ngõ 44 Đỗ Quang",
      "district":"Quận Cầu Giấy",
      "image":"B1p-Ytipl_1.jpg",
      "lat":21.0100373740187,
      "long":105.8018511906266,
      "name":"Sóc Cafe - Đỗ Quang",
      "octime":"  08:00 AM - 10:00 PM",
      "rate":7.6,
      "type":"Café/Dessert",
      "id":"B1p-Ytipl"
   },
   "186":{
      "id_district":7,
      "id_type":2,
      "address":"102 D5 Ngõ 233 Tô Hiệu",
      "district":"Quận Cầu Giấy",
      "image":"H1fzFFipg_1.jpg",
      "lat":21.0401364072688,
      "long":105.7926200330257,
      "name":"Darling Cafe - Tô Hiệu",
      "octime":"  07:00 AM - 11:00 PM",
      "rate":6.4,
      "type":"Café/Dessert",
      "id":"H1fzFFipg"
   },
   "187":{
      "id_district":7,
      "id_type":2,
      "address":"20 Đông Quan",
      "district":"Quận Cầu Giấy",
      "image":"SyuMYKial_1.jpg",
      "lat":21.039848,
      "long":105.805413,
      "name":"Sam Cafe - Đông Quan",
      "octime":"   08:00 AM - 10:30 PM",
      "rate":7.2,
      "type":"Café/Dessert",
      "id":"SyuMYKial"
   },
   "188":{
      "id_district":7,
      "id_type":2,
      "address":"215 Tô Hiệu",
      "district":"Quận Cầu Giấy",
      "image":"SknGYFsTx_1.jpg",
      "lat":21.0410666,
      "long":105.793357,
      "name":"Trung Nguyên Mộc Quán Cafe",
      "octime":"  07:00 AM - 10:30 PM",
      "rate":7.5,
      "type":"Café/Dessert",
      "id":"SknGYFsTx"
   },
   "189":{
      "id_district":7,
      "id_type":2,
      "address":"58 Ngõ 86 Duy Tân",
      "district":"Quận Cầu Giấy",
      "image":"rJrmKKjpg_1.jpg",
      "lat":21.032085620103,
      "long":105.7820293307304,
      "name":"Network Cafe - Duy Tân",
      "octime":"  07:00 AM - 10:00 PM",
      "rate":6.2,
      "type":"Café/Dessert",
      "id":"rJrmKKjpg"
   },
   "190":{
      "id_district":7,
      "id_type":2,
      "address":"Tầng 1, Star Tower, Lô D32, KĐT Mới Cầu Giấy",
      "district":"Quận Cầu Giấy",
      "image":"ryoXFts6l_1.jpg",
      "lat":21.0251457034016,
      "long":105.7912319898605,
      "name":"Star Coffee - Star Tower",
      "octime":"  07:00 AM - 10:00 PM",
      "rate":6.8,
      "type":"Café/Dessert",
      "id":"ryoXFts6l"
   },
   "191":{
      "id_district":7,
      "id_type":2,
      "address":"56 Trần Vỹ",
      "district":"Quận Cầu Giấy",
      "image":"r11EtYiag_1.jpg",
      "lat":21.042603,
      "long":105.773519,
      "name":"Ruby Coffee - Trần Vỹ",
      "octime":"  07:30 AM - 10:30 PM",
      "rate":7.2,
      "type":"Café/Dessert",
      "id":"r11EtYiag"
   },
   "192":{
      "id_district":7,
      "id_type":2,
      "address":"A9 Cốm Vòng",
      "district":"Quận Cầu Giấy",
      "image":"SkHNFFj6l_1.jpg",
      "lat":21.031254,
      "long":105.785524,
      "name":"Corner Coffee - Cốm Vòng",
      "octime":"  07:00 AM - 11:00 PM",
      "rate":7.6,
      "type":"Café/Dessert",
      "id":"SkHNFFj6l"
   },
   "193":{
      "id_district":7,
      "id_type":2,
      "address":"1 Ngõ 37 Dịch Vọng",
      "district":"Quận Cầu Giấy",
      "image":"SJcNYKspe_1.jpg",
      "lat":21.032155718623,
      "long":105.7936137914657,
      "name":"Hân Cafe - Dịch Vọng",
      "octime":"  07:30 AM - 10:00 PM",
      "rate":8.8,
      "type":"Café/Dessert",
      "id":"SJcNYKspe"
   },
   "194":{
      "id_district":7,
      "id_type":2,
      "address":"25 Đỗ Quang",
      "district":"Quận Cầu Giấy",
      "image":"ry1rFYs6x_1.jpg",
      "lat":21.0112880104981,
      "long":105.8018219325408,
      "name":"Đăng Cafe - Đỗ Quang",
      "octime":"  07:30 AM - 10:30 PM",
      "rate":7,
      "type":"Café/Dessert",
      "id":"ry1rFYs6x"
   },
   "195":{
      "id_district":7,
      "id_type":2,
      "address":"7 Ngõ 36 Duy Tân",
      "district":"Quận Cầu Giấy",
      "image":"H1rHtFoTx_1.jpg",
      "lat":21.030955,
      "long":105.785083,
      "name":"Chuẩn Phố Cổ Cafe",
      "octime":"  07:00 AM - 10:00 AM",
      "rate":7.8,
      "type":"Café/Dessert",
      "id":"H1rHtFoTx"
   },
   "196":{
      "id_district":7,
      "id_type":2,
      "address":"24 Ngõ 125 Trung Kính",
      "district":"Quận Cầu Giấy",
      "image":"rJ9SFKial_1.jpg",
      "lat":21.014250108459,
      "long":105.7942675799131,
      "name":"La Vieen Blue Coffee & Restaurant",
      "octime":"  08:00 AM - 10:00 PM",
      "rate":7.2,
      "type":"Café/Dessert",
      "id":"rJ9SFKial"
   },
   "197":{
      "id_district":7,
      "id_type":2,
      "address":"1 Ngõ 43 Nguyễn Phong Sắc",
      "district":"Quận Cầu Giấy",
      "image":"BkxIFYjTl_1.jpg",
      "lat":21.037333,
      "long":105.789966,
      "name":"Sun Tea - Coffee & Tea",
      "octime":"  07:30 AM - 10:00 PM",
      "rate":7,
      "type":"Café/Dessert",
      "id":"BkxIFYjTl"
   },
   "198":{
      "id_district":7,
      "id_type":2,
      "address":"222 Trần Duy Hưng, P. Trung Hòa",
      "district":"Quận Cầu Giấy",
      "image":"BJrLKYiTl_1.jpg",
      "lat":21.0068001228804,
      "long":105.7937324792146,
      "name":"Cafe Fastfood - Big C Thăng Long",
      "octime":"  08:00 AM - 10:00 PM",
      "rate":6.4,
      "type":"Café/Dessert",
      "id":"BJrLKYiTl"
   },
   "199":{
      "id_district":7,
      "id_type":2,
      "address":"Số 10, Lô 14B, Trung Hòa",
      "district":"Quận Cầu Giấy",
      "image":"SJqIYtjpg_1.jpg",
      "lat":21.01467,
      "long":105.801534,
      "name":"Miền Nhiệt Đới Cafe",
      "octime":"   08:00 AM - 10:30 PM",
      "rate":6.8,
      "type":"Café/Dessert",
      "id":"SJqIYtjpg"
   },
   "200":{
      "id_district":7,
      "id_type":2,
      "address":"131 Trung Kính",
      "district":"Quận Cầu Giấy",
      "image":"Bk1wYYi6g_1.jpg",
      "lat":21.013609,
      "long":105.798962,
      "name":"131 Cafe - Trung Kính",
      "octime":"   07:00 AM - 11:00 PM",
      "rate":7.4,
      "type":"Café/Dessert",
      "id":"Bk1wYYi6g"
   },
   "201":{
      "id_district":7,
      "id_type":1,
      "address":"3 Lô 1B Trung Yên 1",
      "district":"Quận Cầu Giấy",
      "image":"HyIwKYj6x_1.jpg",
      "lat":21.015486,
      "long":105.79746,
      "name":"Aliosa - Cafe - Cơm văn phòng",
      "octime":"   06:00 AM - 10:00 PM",
      "rate":7.8,
      "type":"Quán ăn",
      "id":"HyIwKYj6x"
   },
   "202":{
      "id_district":7,
      "id_type":2,
      "address":"51A Phạm Tuấn Tài",
      "district":"Quận Cầu Giấy",
      "image":"HJovKFsag_1.jpg",
      "lat":21.045049,
      "long":105.786358,
      "name":"A76 - Cafe, Food & Drink",
      "octime":"  08:00 AM - 10:00 PM",
      "rate":6.8,
      "type":"Café/Dessert",
      "id":"HJovKFsag"
   },
   "203":{
      "id_district":7,
      "id_type":2,
      "address":"28B Tô Hiệu",
      "district":"Quận Cầu Giấy",
      "image":"HyeuYYi6l_1.jpg",
      "lat":21.045391,
      "long":105.796436,
      "name":"Takee Coffee - Tô Hiệu",
      "octime":"  08:00 AM - 10:30 PM",
      "rate":7.6,
      "type":"Café/Dessert",
      "id":"HyeuYYi6l"
   },
   "204":{
      "id_district":7,
      "id_type":2,
      "address":"Nhà D2 Dịch Vọng",
      "district":"Quận Cầu Giấy",
      "image":"HkS_YYi6e_1.jpg",
      "lat":21.0330466554221,
      "long":105.7917701080441,
      "name":"Mây Cafe - Dịch Vọng",
      "octime":"  07:30 AM - 10:30 PM",
      "rate":6,
      "type":"Café/Dessert",
      "id":"HkS_YYi6e"
   },
   "205":{
      "id_district":7,
      "id_type":2,
      "address":"8 Nguyễn Văn Huyên Kéo Dài",
      "district":"Quận Cầu Giấy",
      "image":"ByjuFFj6e_1.jpg",
      "lat":21.0362967927626,
      "long":105.7975690439343,
      "name":"Xóm Cafe - Nguyễn Văn Huyên",
      "octime":"  08:00 AM - 10:30 PM",
      "rate":8.6,
      "type":"Café/Dessert",
      "id":"ByjuFFj6e"
   },
   "206":{
      "id_district":7,
      "id_type":2,
      "address":"8 Đồng Bông, P. Dịch Vọng Hậu",
      "district":"Quận Cầu Giấy",
      "image":"HylKKKoTl_1.jpg",
      "lat":21.031682240032,
      "long":105.7867335900664,
      "name":"Nguyên Cafe - Đồng Bông",
      "octime":"  07:30 AM - 10:00 PM",
      "rate":7.2,
      "type":"Café/Dessert",
      "id":"HylKKKoTl"
   },
   "207":{
      "id_district":7,
      "id_type":2,
      "address":"59 Trần Quốc Hoàn ",
      "district":"Quận Cầu Giấy",
      "image":"H1KYYtsax_1.jpg",
      "lat":21.041649,
      "long":105.786946,
      "name":"My Space Cafe - Hiện Đại, Phong Cách",
      "octime":"   07:00 AM - 10:30 PM",
      "rate":5.6,
      "type":"Café/Dessert",
      "id":"H1KYYtsax"
   },
   "208":{
      "id_district":7,
      "id_type":2,
      "address":"21/4 Trần Quý Kiên ",
      "district":"Quận Cầu Giấy",
      "image":"SJ0YKFj6l_1.jpg",
      "lat":21.036917,
      "long":105.791875,
      "name":"Yến Cafe - Trần Quý Kiên",
      "octime":"   07:00 AM - 10:00 PM",
      "rate":7,
      "type":"Café/Dessert",
      "id":"SJ0YKFj6l"
   },
   "209":{
      "id_district":7,
      "id_type":2,
      "address":"21/4 Trần Quý Kiên ",
      "district":"Quận Cầu Giấy",
      "image":"Hym5tYoTg_1.jpg",
      "lat":21.036917,
      "long":105.791875,
      "name":"Yến Cafe - Trần Quý Kiên",
      "octime":"   07:00 AM - 10:00 PM",
      "rate":7,
      "type":"Café/Dessert",
      "id":"Hym5tYoTg"
   },
   "210":{
      "id_district":7,
      "id_type":2,
      "address":"27 Nguyễn Khánh Toàn,P. Quan Hoa",
      "district":"Quận Cầu Giấy",
      "image":"By25ttiag_1.jpg",
      "lat":21.0357300735523,
      "long":105.8032348752021,
      "name":"Cafe Xanh - Nguyễn Khánh Toàn",
      "octime":"  07:30 AM - 11:00 PM",
      "rate":7.2,
      "type":"Café/Dessert",
      "id":"By25ttiag"
   },
   "211":{
      "id_district":7,
      "id_type":2,
      "address":"5/16 Trần Thái Tông (Phạm Văn Bạch) ",
      "district":"Quận Cầu Giấy",
      "image":"S1boKYjpe_1.jpg",
      "lat":21.0236597630013,
      "long":105.7879771433777,
      "name":"Cafe Sân Vườn - Phạm Văn Bạch",
      "octime":"  08:00 AM - 10:30 PM",
      "rate":7.2,
      "type":"Café/Dessert",
      "id":"S1boKYjpe"
   },
   "212":{
      "id_district":7,
      "id_type":2,
      "address":"101 Tô Hiệu",
      "district":"Quận Cầu Giấy",
      "image":"HkHotKi6e_1.jpg",
      "lat":21.045131,
      "long":105.79666,
      "name":"Lê Anh Cafe - Không Gian Rất Hà Nội",
      "octime":"   08:00 AM - 10:00 PM",
      "rate":8.6,
      "type":"Café/Dessert",
      "id":"HkHotKi6e"
   },
   "213":{
      "id_district":7,
      "id_type":2,
      "address":"Dolphin Plaza,Trần Bình",
      "district":"Quận Cầu Giấy",
      "image":"rkosKYoax_1.jpg",
      "lat":21.030406,
      "long":105.7754862,
      "name":"Ami Cafe & Restaurant",
      "octime":"  06:30 AM - 11:00 PM",
      "rate":7,
      "type":"Café/Dessert",
      "id":"rkosKYoax"
   },
   "214":{
      "id_district":7,
      "id_type":2,
      "address":"A26 Hoàng Minh Giám (KD)",
      "district":"Quận Cầu Giấy",
      "image":"SyGntYj6g_1.jpg",
      "lat":21.00826,
      "long":105.795422,
      "name":"Queen Cafe - Hoàng Minh Giám",
      "octime":"   07:00 AM - 10:30 PM",
      "rate":7.4,
      "type":"Café/Dessert",
      "id":"SyGntYj6g"
   },
   "215":{
      "id_district":7,
      "id_type":2,
      "address":"Ngõ 5 Nguyễn Khánh Toàn",
      "district":"Quận Cầu Giấy",
      "image":"BJYnKKs6g_1.jpg",
      "lat":21.038291,
      "long":105.799484,
      "name":"JoJo Coffee - Nguyễn Khánh Toàn",
      "octime":"  08:00 AM - 11:00 PM",
      "rate":6,
      "type":"Café/Dessert",
      "id":"BJYnKKs6g"
   },
   "216":{
      "id_district":7,
      "id_type":1,
      "address":"56B Ngõ 43 Trung Kính",
      "district":"Quận Cầu Giấy",
      "image":"HJ0hFtipg_1.jpg",
      "lat":21.0117562841931,
      "long":105.7985212281346,
      "name":"Quà Vui - Cafe & Đồ Ăn Vặt",
      "octime":"  07:30 AM - 10:00 PM",
      "rate":7,
      "type":"Quán ăn",
      "id":"HJ0hFtipg"
   },
   "217":{
      "id_district":7,
      "id_type":2,
      "address":"31A Hoàng Quốc Việt",
      "district":"Quận Cầu Giấy",
      "image":"B1VaYKjTe_1.jpg",
      "lat":21.046245,
      "long":105.804257,
      "name":"Hương Ly Cafe - Hoàng Quốc Việt",
      "octime":"   08:00 AM - 10:30 PM",
      "rate":7.2,
      "type":"Café/Dessert",
      "id":"B1VaYKjTe"
   },
   "218":{
      "id_district":7,
      "id_type":2,
      "address":"LK1A – C4 Làng Quốc Tế Thăng Long",
      "district":"Quận Cầu Giấy",
      "image":"B1qTKtsTe_1.jpg",
      "lat":21.038785,
      "long":105.794435,
      "name":"Mộc Quán Cafe - Làng Quốc Tế Thăng Long",
      "octime":"   07:30 AM - 10:30 PM",
      "rate":6.6,
      "type":"Café/Dessert",
      "id":"B1qTKtsTe"
   },
   "219":{
      "id_district":7,
      "id_type":2,
      "address":"LK2B C4 Làng Quốc Tế Thăng Long",
      "district":"Quận Cầu Giấy",
      "image":"H1x0tFjpe_1.jpg",
      "lat":21.0395258932747,
      "long":105.7928091287612,
      "name":"Rain Coffee - Làng Quốc Tế Thăng Long",
      "octime":"  07:00 AM - 10:30 PM",
      "rate":8,
      "type":"Café/Dessert",
      "id":"H1x0tFjpe"
   },
   "220":{
      "id_district":7,
      "id_type":2,
      "address":"Ngõ 86 Duy Tân",
      "district":"Quận Cầu Giấy",
      "image":"SyBAFtjpx_1.jpg",
      "lat":21.0329169999999,
      "long":105.7823059999999,
      "name":"Đông Hoa Coffee & Fast Food - Duy Tân",
      "octime":"  07:00 AM - 06:00 PM",
      "rate":6.8,
      "type":"Café/Dessert",
      "id":"SyBAFtjpx"
   },
   "221":{
      "id_district":7,
      "id_type":2,
      "address":"LK2B C4 Làng Quốc Tế Thăng Long",
      "district":"Quận Cầu Giấy",
      "image":"HycCFYjTl_1.jpg",
      "lat":21.0395258932747,
      "long":105.7928091287612,
      "name":"Rain Coffee - Làng Quốc Tế Thăng Long",
      "octime":"  07:00 AM - 10:30 PM",
      "rate":8,
      "type":"Café/Dessert",
      "id":"HycCFYjTl"
   },
   "222":{
      "id_district":7,
      "id_type":1,
      "address":"Lô 3 Nguyễn Khánh Toàn",
      "district":"Quận Cầu Giấy",
      "image":"H1ly5toag_1.jpg",
      "lat":21.0367699437595,
      "long":105.8019718900322,
      "name":"Great - Bánh Mì & Cafe - Nguyễn Khánh Toàn",
      "octime":"  07:00 AM - 10:00 PM",
      "rate":8,
      "type":"Quán ăn",
      "id":"H1ly5toag"
   },
   "223":{
      "id_district":7,
      "id_type":2,
      "address":"36 Ngõ 105 Nguyễn Phong Sắc",
      "district":"Quận Cầu Giấy",
      "image":"S1ry5FsTx_1.jpg",
      "lat":21.039682,
      "long":105.788182,
      "name":"Nhà+ Coffee",
      "octime":"   08:00 AM - 11:30 PM",
      "rate":7.2,
      "type":"Café/Dessert",
      "id":"S1ry5FsTx"
   },
   "224":{
      "id_district":7,
      "id_type":2,
      "address":"2 Ngõ 86 Duy Tân",
      "district":"Quận Cầu Giấy",
      "image":"ByqJqFoae_1.jpg",
      "lat":21.031467,
      "long":105.781878,
      "name":"Coffee Lounge - MyWay Hotel",
      "octime":"  12:00 AM - 12:00 AM",
      "rate":7.6,
      "type":"Café/Dessert",
      "id":"ByqJqFoae"
   },
   "225":{
      "id_district":7,
      "id_type":1,
      "address":"156 Nguyễn Khánh Toàn",
      "district":"Quận Cầu Giấy",
      "image":"SJbx9Yopg_1.jpg",
      "lat":21.0363251,
      "long":105.8028276,
      "name":"Kita Food Bakery & Coffee - Nguyễn Khánh Toàn",
      "octime":"  09:00 AM - 10:30 PM",
      "rate":7.6,
      "type":"Quán ăn",
      "id":"SJbx9Yopg"
   },
   "226":{
      "id_district":7,
      "id_type":2,
      "address":"11 Nghách 68/37 Ngõ 68 Cầu Giấy",
      "district":"Quận Cầu Giấy",
      "image":"rkIgcti6x_1.jpg",
      "lat":21.0318039739311,
      "long":105.8008963242173,
      "name":"CeO Coffee",
      "octime":"  08:00 AM - 11:00 PM",
      "rate":0,
      "type":"Café/Dessert",
      "id":"rkIgcti6x"
   },
   "227":{
      "id_district":7,
      "id_type":2,
      "address":"C1T ĐH Quốc Gia Hà Nội",
      "district":"Quận Cầu Giấy",
      "image":"ryie5toTg_1.jpg",
      "lat":21.0402991271319,
      "long":105.7848134636879,
      "name":"Sách Thư Viện Cafe - ĐH Quốc Gia",
      "octime":"  08:00 AM - 10:00 PM",
      "rate":5.8,
      "type":"Café/Dessert",
      "id":"ryie5toTg"
   },
   "228":{
      "id_district":7,
      "id_type":2,
      "address":"24 Ngõ 105 Doãn Kế Thiện",
      "district":"Quận Cầu Giấy",
      "image":"Hyb-9Yo6l_1.jpg",
      "lat":21.0402073,
      "long":105.7777236,
      "name":"Fun Cafe - Doãn Kế Thiện",
      "octime":"  07:30 AM - 10:30 PM",
      "rate":5,
      "type":"Café/Dessert",
      "id":"Hyb-9Yo6l"
   },
   "229":{
      "id_district":7,
      "id_type":2,
      "address":"8 Phạm Văn Đồng",
      "district":"Quận Cầu Giấy",
      "image":"B1I-qtipx_1.jpg",
      "lat":21.037924,
      "long":105.78053,
      "name":"Rubic 8 Cafe - Ẩm Thực Miền Trung",
      "octime":"   07:00 AM - 10:30 PM",
      "rate":8,
      "type":"Café/Dessert",
      "id":"B1I-qtipx"
   },
   "230":{
      "id_district":7,
      "id_type":1,
      "address":"D14 Cốm Vòng, P. Dịch Vọng Hậu",
      "district":"Quận Cầu Giấy",
      "image":"SJsW9Ki6l_1.jpg",
      "lat":21.0320199027105,
      "long":105.7843987271189,
      "name":"Thủy Sóc Quán - Cơm Ngon Tự Chọn & Cafe Giải Khát",
      "octime":"  06:30 AM - 02:00 PM",
      "rate":7.4,
      "type":"Quán ăn",
      "id":"SJsW9Ki6l"
   },
   "231":{
      "id_district":7,
      "id_type":1,
      "address":"HL Tower, Ngõ 82 Duy Tân, P. Dịch Vọng Hậu",
      "district":"Quận Cầu Giấy",
      "image":"SJLf5Yjal_1.jpg",
      "lat":21.0321657120677,
      "long":105.7828635454384,
      "name":"B Coffee & Restaurant - HL Tower",
      "octime":"   07:30 AM - 06:30 PM",
      "rate":6.8,
      "type":"Quán ăn",
      "id":"SJLf5Yjal"
   },
   "232":{
      "id_district":7,
      "id_type":2,
      "address":"A23/D5 Ngách 66/2 Trần Thái Tông",
      "district":"Quận Cầu Giấy",
      "image":"BkjG5YjTl_1.jpg",
      "lat":21.0326345156682,
      "long":105.7879546657204,
      "name":"Six Strings - Hội Quán Guitar & Coffee",
      "octime":"  07:00 AM - 10:00 PM",
      "rate":7.4,
      "type":"Café/Dessert",
      "id":"BkjG5YjTl"
   },
   "233":{
      "id_district":7,
      "id_type":2,
      "address":"10 Trần Thái Tông",
      "district":"Quận Cầu Giấy",
      "image":"BJWmcFipx_1.jpg",
      "lat":21.035876,
      "long":105.789451,
      "name":"Jukul Coffee - Tinh Hoa Việt Trong Cafe Ý",
      "octime":"   07:00 AM - 10:00 PM",
      "rate":4.1,
      "type":"Café/Dessert",
      "id":"BJWmcFipx"
   },
   "234":{
      "id_district":7,
      "id_type":1,
      "address":"128 Nguyễn Khang",
      "district":"Quận Cầu Giấy",
      "image":"rJImctoal_1.jpg",
      "lat":21.023904,
      "long":105.797562,
      "name":"Xôi Mỡ - Cafe & Xôi",
      "octime":"  06:00 PM - 11:00 PM",
      "rate":8.8,
      "type":"Quán ăn",
      "id":"rJImctoal"
   },
   "235":{
      "id_district":7,
      "id_type":1,
      "address":"A30/D11, Ngõ 66 Trần Thái Tông ",
      "district":"Quận Cầu Giấy",
      "image":"rk6X5Kspe_1.jpg",
      "lat":21.0318637455521,
      "long":105.7877893745899,
      "name":"Ryu Gyong - Cafe & Restaurant",
      "octime":"   08:30 AM - 10:30 PM",
      "rate":7.3,
      "type":"Quán ăn",
      "id":"rk6X5Kspe"
   },
   "236":{
      "id_district":7,
      "id_type":2,
      "address":"26 Ngõ 165 Cầu Giấy, P. Dịch Vọng",
      "district":"Quận Cầu Giấy",
      "image":"BkGVqtj6l_1.jpg",
      "lat":21.0321882643532,
      "long":105.7976652681827,
      "name":"Cafe 26 - Cầu Giấy",
      "octime":"  07:00 AM - 09:30 PM",
      "rate":0,
      "type":"Café/Dessert",
      "id":"BkGVqtj6l"
   },
   "237":{
      "id_district":7,
      "id_type":2,
      "address":"1 Ngõ 36 Duy Tân",
      "district":"Quận Cầu Giấy",
      "image":"BkvE5Yj6e_1.jpg",
      "lat":21.031062,
      "long":105.785137,
      "name":"Eliza Cafe",
      "octime":"  07:00 AM - 11:00 PM",
      "rate":0,
      "type":"Café/Dessert",
      "id":"BkvE5Yj6e"
   },
   "238":{
      "id_district":7,
      "id_type":2,
      "address":"345 Quan Hoa",
      "district":"Quận Cầu Giấy",
      "image":"rkhNqFjae_1.jpg",
      "lat":21.038111,
      "long":105.80607,
      "name":"Coffee Trầm",
      "octime":"  07:00 AM - 10:00 PM",
      "rate":0,
      "type":"Café/Dessert",
      "id":"rkhNqFjae"
   },
   "239":{
      "id_district":7,
      "id_type":2,
      "address":"12 Ngõ 76 Duy Tân",
      "district":"Quận Cầu Giấy",
      "image":"H1WrqKopl_1.jpg",
      "lat":21.03197,
      "long":105.784023,
      "name":"Coffee Bean Saigon",
      "octime":"  09:00 AM - 10:00 PM",
      "rate":0,
      "type":"Café/Dessert",
      "id":"H1WrqKopl"
   },
   "240":{
      "id_district":7,
      "id_type":2,
      "address":"46B Trần Thái Tông",
      "district":"Quận Cầu Giấy",
      "image":"rJIB5FoTg_1.jpg",
      "lat":21.0337542,
      "long":105.790477,
      "name":"XXL Cafe",
      "octime":"   07:00 AM - 10:30 PM",
      "rate":0,
      "type":"Café/Dessert",
      "id":"rJIB5FoTg"
   },
   "241":{
      "id_district":7,
      "id_type":2,
      "address":"58 Nguyễn Khánh Toàn",
      "district":"Quận Cầu Giấy",
      "image":"SkoB9tsax_1.jpg",
      "lat":21.0362,
      "long":105.802634,
      "name":"Classic Coffee",
      "octime":"  07:00 AM - 10:00 PM",
      "rate":0,
      "type":"Café/Dessert",
      "id":"SkoB9tsax"
   },
   "242":{
      "id_district":7,
      "id_type":2,
      "address":"30 Trần Đăng Ninh",
      "district":"Quận Cầu Giấy",
      "image":"SJMIcFoTe_1.jpg",
      "lat":21.0360911450481,
      "long":105.7939299943694,
      "name":"One Coffee - Trần Đăng Ninh",
      "octime":"   07:00 AM - 06:00 PM",
      "rate":0,
      "type":"Café/Dessert",
      "id":"SJMIcFoTe"
   },
   "243":{
      "id_district":7,
      "id_type":2,
      "address":"48 Ngõ Văn Minh, P. Mai Dịch",
      "district":"Quận Cầu Giấy",
      "image":"Hk_Lqtjpe_1.jpg",
      "lat":21.04019,
      "long":105.77653,
      "name":"Cầu May Cafe",
      "octime":"  07:00 AM - 10:00 PM",
      "rate":0,
      "type":"Café/Dessert",
      "id":"Hk_Lqtjpe"
   },
   "244":{
      "id_district":7,
      "id_type":2,
      "address":"A6 Trần Quốc Hoàn",
      "district":"Quận Cầu Giấy",
      "image":"rJpL5Yoae_1.jpg",
      "lat":21.0416481305357,
      "long":105.7829788327217,
      "name":"Pingsu - Cafe & Sữa Chua Các Loại",
      "octime":"  08:00 AM - 10:30 PM",
      "rate":0,
      "type":"Café/Dessert",
      "id":"rJpL5Yoae"
   }
}