{
   "0":{
      "address":"2 Nhà Thờ",
      "district":"Quận Hoàn Kiếm",
      "image":"H1g_ZlEfpl_1.jpg",
      "lat":21.028502,
      "long":105.8488409,
      "name":"Eden Coffee",
      "octime":"  08:00 AM - 11:00 PM",
      "rate":7.7,
      "type":"Café/Dessert",
      "id":"H1g_ZlEfpl"
   },
   "1":{
      "address":"129 Lê Duẩn",
      "district":"Quận Hoàn Kiếm",
      "image":"rkwWgEz6g_1.jpg",
      "lat":21.024256,
      "long":105.841579,
      "name":"Highlands Coffee - Lê Duẩn",
      "octime":"  09:00 AM - 10:00 PM",
      "rate":7.1,
      "type":"Café/Dessert",
      "id":"rkwWgEz6g"
   },
   "2":{
      "address":"1 Lê Thái Tổ",
      "district":"Quận Hoàn Kiếm",
      "image":"HkWdWgNf6g_1.jpg",
      "lat":21.03146,
      "long":105.85126,
      "name":"Thủy Tạ Cafe",
      "octime":"  09:00 AM - 11:00 PM",
      "rate":6.9,
      "type":"Café/Dessert",
      "id":"HkWdWgNf6g"
   },
   "3":{
      "address":"1 Phạm Ngũ Lão, P. Phan Chu Trinh",
      "district":"Quận Hoàn Kiếm",
      "image":"H1_Zx4zTx_1.jpg",
      "lat":21.0246039782339,
      "long":105.8591166883707,
      "name":"Le Bon - Cafe & Restaurant",
      "octime":"  06:30 AM - 11:00 PM",
      "rate":7.7,
      "type":"Nhà hàng, ",
      "id":"H1_Zx4zTx"
   },
   "4":{
      "address":"29A Trần Hưng Đạo",
      "district":"Quận Hoàn Kiếm",
      "image":"rJ2ZlVMae_1.jpg",
      "lat":21.020202,
      "long":105.854794,
      "name":"Avocado Cafe",
      "octime":"   07:00 AM - 11:00 PM",
      "rate":7,
      "type":"Café/Dessert",
      "id":"rJ2ZlVMae"
   },
   "5":{
      "address":"11 Hàng Gai",
      "district":"Quận Hoàn Kiếm",
      "image":"SkCZg4MTg_1.jpg",
      "lat":21.032236,
      "long":105.851265,
      "name":"Vườn Phố Cổ Cafe",
      "octime":"   07:00 AM - 10:00 PM",
      "rate":7,
      "type":"Café/Dessert",
      "id":"SkCZg4MTg"
   },
   "6":{
      "address":"93 Trần Quốc Toản",
      "district":"Quận Hoàn Kiếm",
      "image":"rJ-fe4Gae_1.jpg",
      "lat":21.028476,
      "long":105.847644,
      "name":"Link Cafe",
      "octime":"  07:00 AM - 11:00 PM",
      "rate":6.9,
      "type":"Café/Dessert",
      "id":"rJ-fe4Gae"
   },
   "7":{
      "address":"Tầng 4, 3B Lê Thái Tổ",
      "district":"Quận Hoàn Kiếm",
      "image":"SkxzxVzag_1.jpg",
      "lat":21.031229,
      "long":105.850917,
      "name":"ILLY Coffee & Restaurant",
      "octime":"  07:00 AM - 10:30 PM",
      "rate":7.1,
      "type":"Café/Dessert",
      "id":"SkxzxVzag"
   },
   "8":{
      "address":"106 Yên Phụ, P. Nguyễn Trung Trực",
      "district":"Quận Ba Đình",
      "image":"BymMl4fpl_1.jpg",
      "lat":21.0415639,
      "long":105.848898,
      "name":"Giảng Cafe - Yên Phụ",
      "octime":"   07:00 AM - 10:30 PM",
      "rate":7.6,
      "type":"Café/Dessert",
      "id":"BymMl4fpl"
   },
   "9":{
      "address":"17 Ngõ 12B Lý Nam Đế",
      "district":"Quận Hoàn Kiếm",
      "image":"HySzxVfpe_1.jpg",
      "lat":21.037997,
      "long":105.845377,
      "name":"Reng Reng Cafe",
      "octime":"  07:00 AM - 09:30 PM",
      "rate":8.1,
      "type":"Café/Dessert",
      "id":"HySzxVfpe"
   },
   "10":{
      "address":"91 Trần Duy Hưng, P. Trung Hòa",
      "district":"Quận Cầu Giấy",
      "image":"r1tGe4MTl_1.jpg",
      "lat":21.0112605,
      "long":105.8001297999999,
      "name":"Sooda Cafe",
      "octime":"  07:30 AM - 11:00 PM",
      "rate":7.5,
      "type":"Café/Dessert",
      "id":"r1tGe4MTl"
   },
   "11":{
      "address":"39 Tạ Hiện",
      "district":"Quận Hoàn Kiếm",
      "image":"HJeoMeNzTe_1.jpg",
      "lat":21.034093,
      "long":105.85207,
      "name":"Tạ Hiện Cafe - Cafe Vỉa Hè",
      "octime":"   04:00 PM - 10:00 PM",
      "rate":7.3,
      "type":"Café/Dessert",
      "id":"HJeoMeNzTe"
   },
   "12":{
      "address":"11B Ngõ Bảo Khánh",
      "district":"Quận Hoàn Kiếm",
      "image":"rksMlVMTg_1.jpg",
      "lat":21.031099,
      "long":105.85008,
      "name":"Loft Stop Cafe",
      "octime":"   07:00 AM - 10:30 PM",
      "rate":7.1,
      "type":"Café/Dessert",
      "id":"rksMlVMTg"
   },
   "13":{
      "address":"60 Nguyễn Hữu Huân, P. Lý Thái Tổ",
      "district":"Quận Hoàn Kiếm",
      "image":"HkRzgVz6g_1.jpg",
      "lat":21.033114,
      "long":105.854398,
      "name":"Lâm Cafe - Nguyễn Hữu Huân",
      "octime":"   07:00 AM - 10:30 PM",
      "rate":7.3,
      "type":"Café/Dessert",
      "id":"HkRzgVz6g"
   },
   "14":{
      "address":"8 Dã Tượng",
      "district":"Quận Hoàn Kiếm",
      "image":"BkgXlEMal_1.jpg",
      "lat":21.023656,
      "long":105.846647,
      "name":"Dahlia Cafe & Restaurant - Dã Tượng",
      "octime":"  08:00 AM - 10:00 PM",
      "rate":7.4,
      "type":"Nhà hàng, ",
      "id":"BkgXlEMal"
   },
   "15":{
      "address":"2 Tô Tịch",
      "district":"Quận Hoàn Kiếm",
      "image":"Bkx8QgVfpl_1.jpg",
      "lat":21.032867,
      "long":105.850029,
      "name":"Fagioli Coffee",
      "octime":"   07:00 AM - 11:00 PM",
      "rate":7.5,
      "type":"Café/Dessert",
      "id":"Bkx8QgVfpl"
   },
   "16":{
      "address":"6B Nguyễn Văn Ngọc",
      "district":"Quận Ba Đình",
      "image":"HkV7e4M6g_1.jpg",
      "lat":21.0340133173882,
      "long":105.81149071455,
      "name":"Woodpecker Coffee",
      "octime":"  07:00 AM - 11:00 PM",
      "rate":7.3,
      "type":"Café/Dessert",
      "id":"HkV7e4M6g"
   },
   "17":{
      "address":"Tầng 7 Tòa Nhà OCD, 1 Xã Đàn Mới",
      "district":"Quận Đống Đa",
      "image":"r1_mxEzTl_1.jpg",
      "lat":21.018001,
      "long":105.831091,
      "name":"Aries Coffee",
      "octime":"  07:00 AM - 03:00 AM",
      "rate":7.4,
      "type":"Café/Dessert",
      "id":"r1_mxEzTl"
   },
   "18":{
      "address":"14 Ngõ 202F Đội Cấn",
      "district":"Quận Ba Đình",
      "image":"B18meNM6x_1.jpg",
      "lat":21.035,
      "long":105.824776,
      "name":"Altico Cafe - Cafe Mèo",
      "octime":"   08:00 AM - 10:30 PM",
      "rate":7,
      "type":"Café/Dessert",
      "id":"B18meNM6x"
   },
   "19":{
      "address":"16 Hang Be",
      "district":"Quận Hoàn Kiếm",
      "image":"By5QgNfal_1.jpg",
      "lat":21.033608,
      "long":105.853862,
      "name":"Aubergine Cafe - Nhà Hàng",
      "octime":"   07:00 AM - 10:00 PM",
      "rate":7,
      "type":"Nhà hàng, ",
      "id":"By5QgNfal"
   },
   "20":{
      "address":"136 Yên Lãng",
      "district":"Quận Đống Đa",
      "image":"r1nXlEzTg_1.jpg",
      "lat":21.0094955939646,
      "long":105.8149286359548,
      "name":"Cine Cafe - Cafe Phim - Yên Lãng",
      "octime":"  8:30 AM - 11:00 PM",
      "rate":7.8,
      "type":"Café/Dessert",
      "id":"r1nXlEzTg"
   },
   "21":{
      "address":"33B Hàm Long, P. Hàng Bài",
      "district":"Quận Hoàn Kiếm",
      "image":"ryT7xEMag_1.jpg",
      "lat":21.019649,
      "long":105.852084,
      "name":"Novayo Cafe",
      "octime":"   07:00 AM - 10:00 PM",
      "rate":7.1,
      "type":"Café/Dessert",
      "id":"ryT7xEMag"
   },
   "22":{
      "address":"9 Hạ Hồi",
      "district":"Quận Hoàn Kiếm",
      "image":"ByR7gVfTx_1.jpg",
      "lat":21.0217065,
      "long":105.8474265,
      "name":"Echoes Cafe - Hạ Hồi",
      "octime":"   07:00 AM - 10:30 PM",
      "rate":7.2,
      "type":"Café/Dessert",
      "id":"ByR7gVfTx"
   },
   "23":{
      "address":"6 Phan Chu Trinh",
      "district":"Quận Hoàn Kiếm",
      "image":"H1gNeVGpg_1.jpg",
      "lat":21.023654,
      "long":105.85677,
      "name":"Sweet Cherry - Cafe & Restaurant",
      "octime":"   07:00 AM - 11:00 PM",
      "rate":7.2,
      "type":"Café/Dessert",
      "id":"H1gNeVGpg"
   },
   "24":{
      "address":"14 Ngõ 16 Nhà Thờ ",
      "district":"Quận Hoàn Kiếm",
      "image":"HymVl4fag_1.jpg",
      "lat":21.029031,
      "long":105.849974,
      "name":"Moca Cafe - Nhà Thờ",
      "octime":"   07:00 AM - 10:30 PM",
      "rate":7.1,
      "type":"Café/Dessert",
      "id":"HymVl4fag"
   },
   "25":{
      "address":"42s Lý Thường Kiệt",
      "district":"Quận Hoàn Kiếm",
      "image":"S1UNxVz6e_1.jpg",
      "lat":21.023541,
      "long":105.850002,
      "name":"Cafe 42s - Trà Đào & Ăn Vặt",
      "octime":"   08:00 AM - 10:00 PM",
      "rate":7.2,
      "type":"Café/Dessert",
      "id":"S1UNxVz6e"
   },
   "26":{
      "address":"8B Hàng Tre, P. Lý Thái Tổ",
      "district":"Quận Hoàn Kiếm",
      "image":"HkgLVe4zpl_1.jpg",
      "lat":21.033686,
      "long":105.854799,
      "name":"Xóm Cafe - Hàng Tre",
      "octime":"   07:00 AM - 10:30 PM",
      "rate":8.1,
      "type":"Café/Dessert",
      "id":"HkgLVe4zpl"
   },
   "27":{
      "address":"42Đ Lý Thường Kiệt",
      "district":"Quận Hoàn Kiếm",
      "image":"SyuExNz6e_1.jpg",
      "lat":21.023556,
      "long":105.84991,
      "name":"Delio Coffee - Lý Thường Kiệt",
      "octime":"  09:00 AM - 10:30 PM",
      "rate":7.6,
      "type":"Café/Dessert",
      "id":"SyuExNz6e"
   },
   "28":{
      "address":"60 Hàng Trống",
      "district":"Quận Hoàn Kiếm",
      "image":"HJp4g4Gax_1.jpg",
      "lat":21.0301622790947,
      "long":105.8498667553067,
      "name":"Canopee - Cafe & Bar",
      "octime":"   09:00 AM - 12:00 AM",
      "rate":7.2,
      "type":"Café/Dessert",
      "id":"HJp4g4Gax"
   },
   "29":{
      "address":"2 Ngõ 118 Trương Định ( Ngõ Trại Cá)",
      "district":"Quận Hai Bà Trưng",
      "image":"HJlbrlEfTl_1.jpg",
      "lat":20.993128,
      "long":105.84891,
      "name":"Likes Cafe",
      "octime":"   09:00 AM - 10:00 PM",
      "rate":7.8,
      "type":"Café/Dessert",
      "id":"HJlbrlEfTl"
   },
   "30":{
      "address":"24 Hòa Mã ",
      "district":"Quận Hai Bà Trưng",
      "image":"S1bHl4G6l_1.jpg",
      "lat":21.0158381470105,
      "long":105.8561032265424,
      "name":"Cora Cafe - Hòa Mã",
      "octime":"  07:00 AM - 11:00 PM",
      "rate":7.5,
      "type":"Café/Dessert",
      "id":"S1bHl4G6l"
   },
   "31":{
      "address":"56-58 Nguyễn Thái Học",
      "district":"Quận Ba Đình",
      "image":"HJbbBl4Mae_1.jpg",
      "lat":21.029692,
      "long":105.838594,
      "name":"Goethe Cafe",
      "octime":"   08:00 AM - 10:30 PM",
      "rate":7.2,
      "type":"Café/Dessert",
      "id":"HJbbBl4Mae"
   },
   "32":{
      "address":"12 K6B Ngõ 48 Tạ Quang Bửu",
      "district":"Quận Hai Bà Trưng",
      "image":"BJEHlEGTx_1.jpg",
      "lat":21.000788,
      "long":105.84928,
      "name":"Gattino Cafe",
      "octime":"   07:00 AM - 10:00 PM",
      "rate":7,
      "type":"Café/Dessert",
      "id":"BJEHlEGTx"
   },
   "33":{
      "address":"16 - 18 Tống Duy Tân",
      "district":"Quận Hoàn Kiếm",
      "image":"SyKHeEGTe_1.jpg",
      "lat":21.029147,
      "long":105.843653,
      "name":"Puku Cafe & Bar",
      "octime":"  12:00 AM - 12:00 AM",
      "rate":7,
      "type":"Nhà hàng, ",
      "id":"SyKHeEGTe"
   },
   "34":{
      "address":"10 Ngõ 84 Trần Đại Nghĩa",
      "district":"Quận Hai Bà Trưng",
      "image":"ByZprgEz6g_1.jpg",
      "lat":20.9993960905678,
      "long":105.8453173935413,
      "name":"Greecy - Coffee & Cake",
      "octime":"   08:00 AM - 11:00 PM",
      "rate":7.2,
      "type":"Café/Dessert, ",
      "id":"ByZprgEz6g"
   },
   "35":{
      "address":"40 Ngõ 1 Nguyễn Thị Định",
      "district":"Quận Cầu Giấy",
      "image":"Sk6SxNGTx_1.jpg",
      "lat":21.013255,
      "long":105.803495,
      "name":"Santorini Cafe",
      "octime":"  06:45 AM - 10:30 PM",
      "rate":7.1,
      "type":"Café/Dessert",
      "id":"Sk6SxNGTx"
   },
   "36":{
      "address":"257 Trần Quốc Hoàn",
      "district":"Quận Cầu Giấy",
      "image":"H1l6BlNGae_1.jpg",
      "lat":21.0416841,
      "long":105.7851367,
      "name":"Gấu Coffee",
      "octime":"  08:00 AM - 10:30 PM",
      "rate":7.2,
      "type":"Café/Dessert",
      "id":"H1l6BlNGae"
   },
   "37":{
      "address":"24 Hòa Mã ",
      "district":"Quận Hai Bà Trưng",
      "image":"HkrIg4Mae_1.jpg",
      "lat":21.0158381470105,
      "long":105.8561032265424,
      "name":"Cora Cafe - Hòa Mã",
      "octime":"  07:00 AM - 11:00 PM",
      "rate":7.5,
      "type":"Café/Dessert",
      "id":"HkrIg4Mae"
   },
   "38":{
      "address":"189 Nghi Tàm",
      "district":"Quận Tây Hồ",
      "image":"rkgF8gVMTl_1.jpg",
      "lat":21.0557028,
      "long":105.8360956999999,
      "name":"6 Degrees Cafe - Rooftop",
      "octime":"  10:00 AM - 11:30 PM",
      "rate":7.6,
      "type":"Café/Dessert, ",
      "id":"rkgF8gVMTl"
   },
   "39":{
      "address":"10 Ngõ 84 Trần Đại Nghĩa",
      "district":"Quận Hai Bà Trưng",
      "image":"ByYIeVG6x_1.jpg",
      "lat":20.9993960905678,
      "long":105.8453173935413,
      "name":"Greecy - Coffee & Cake",
      "octime":"   08:00 AM - 11:00 PM",
      "rate":7.2,
      "type":"Café/Dessert, ",
      "id":"ByYIeVG6x"
   },
   "40":{
      "address":"34 Ngõ 28B Điện Biên Phủ, P. Điện Biên",
      "district":"Quận Ba Đình",
      "image":"rk-tIeNM6l_1.jpg",
      "lat":21.031868,
      "long":105.840669,
      "name":"Ohayo Cafe",
      "octime":"  10:00 AM - 10:00 PM",
      "rate":7.8,
      "type":"Café/Dessert",
      "id":"rk-tIeNM6l"
   },
   "41":{
      "address":"58 Tuệ Tĩnh",
      "district":"Quận Hai Bà Trưng",
      "image":"r1aLlVzTg_1.jpg",
      "lat":21.015213,
      "long":105.849604,
      "name":"QUANTUM Cafe",
      "octime":"  08:00 AM - 11:00 PM",
      "rate":7.4,
      "type":"Café/Dessert",
      "id":"r1aLlVzTg"
   },
   "42":{
      "address":"171-173 Ngõ 75 Trần Quang Diệu",
      "district":"Quận Đống Đa",
      "image":"SyQvxVM6l_1.jpg",
      "lat":21.014533,
      "long":105.823351,
      "name":"Culaccino Cafe",
      "octime":"  09:00 AM - 11:00 PM",
      "rate":7.6,
      "type":"Café/Dessert",
      "id":"SyQvxVM6l"
   },
   "43":{
      "address":"3 Trần Xuân Soạn",
      "district":"Quận Hai Bà Trưng",
      "image":"HygXDxNM6l_1.jpg",
      "lat":21.017257,
      "long":105.855367,
      "name":"Dato Coffee",
      "octime":"  08:00 AM - 11:00 PM",
      "rate":7.6,
      "type":"Café/Dessert",
      "id":"HygXDxNM6l"
   },
   "44":{
      "address":"314 Bà Triệu",
      "district":"Quận Hai Bà Trưng",
      "image":"HJbvgNMpg_1.jpg",
      "lat":21.01068,
      "long":105.849047,
      "name":"Starbucks Coffee - Bà Triệu",
      "octime":"Thứ 7 - CN  07:00 AM - 11:30 PM",
      "rate":7.7,
      "type":"Café/Dessert",
      "id":"HJbvgNMpg"
   },
   "45":{
      "address":"Tầng 2, 14 Lý Thường Kiệt, P. Phan Chu Trinh",
      "district":"Quận Hoàn Kiếm",
      "image":"H1SDeEMae_1.jpg",
      "lat":21.0216706,
      "long":105.85635,
      "name":"Unicorn’s Home Cafe",
      "octime":"   07:00 AM - 10:30 PM",
      "rate":7,
      "type":"Café/Dessert",
      "id":"H1SDeEMae"
   },
   "46":{
      "address":"Tầng 26, Hei Tower, 1 Ngụy Như Kon Tum",
      "district":"Quận Thanh Xuân",
      "image":"rkOPeNGTg_1.jpg",
      "lat":21.002858,
      "long":105.805627,
      "name":"Trill Group - Restaurant & Cafe",
      "octime":"  07:00 AM - 10:30 PM",
      "rate":7.2,
      "type":"Nhà hàng",
      "id":"rkOPeNGTg"
   },
   "47":{
      "address":"108 K2 Bách Khoa, Ngõ 48 Tạ Quang Bửu",
      "district":"Quận Hai Bà Trưng",
      "image":"HkjveNzpe_1.jpg",
      "lat":21.001128,
      "long":105.849237,
      "name":"Pattern Coffee - Tạ Quang Bửu",
      "octime":"   07:00 AM - 10:00 PM",
      "rate":7.6,
      "type":"Café/Dessert",
      "id":"HkjveNzpe"
   },
   "48":{
      "address":"1 Tạ Hiện",
      "district":"Quận Hoàn Kiếm",
      "image":"HJhPx4MTx_1.jpg",
      "lat":21.0358108100486,
      "long":105.851847231388,
      "name":"Lều Coffee - Tạ Hiện",
      "octime":"  09:00 AM - 11:00 PM",
      "rate":7.7,
      "type":"Café/Dessert",
      "id":"HJhPx4MTx"
   },
   "49":{
      "address":"A51 Hoàng Ngân",
      "district":"Quận Cầu Giấy",
      "image":"SJCDgEMTe_1.jpg",
      "lat":21.0098827587677,
      "long":105.803025662899,
      "name":"Noble Moment - Cafe' Serendipity",
      "octime":"  08:00 AM - 10:00 PM",
      "rate":7.5,
      "type":"Café/Dessert",
      "id":"SJCDgEMTe"
   },
   "50":{
      "address":"107 Giảng Võ",
      "district":"Quận Đống Đa",
      "image":"SJ-OlVz6e_1.jpg",
      "lat":21.0290312954248,
      "long":105.8267766237258,
      "name":"Navy Coffee - Giảng Võ",
      "octime":"  08:00 AM - 10:30 PM",
      "rate":7.5,
      "type":"Café/Dessert",
      "id":"SJ-OlVz6e"
   },
   "51":{
      "address":"86 Quán Thánh",
      "district":"Quận Ba Đình",
      "image":"Sk4_lNGTg_1.jpg",
      "lat":21.0417855,
      "long":105.8439413,
      "name":"Hangout Cafe - Quán Thánh",
      "octime":"   08:00 AM - 11:00 PM",
      "rate":7.4,
      "type":"Café/Dessert",
      "id":"Sk4_lNGTg"
   },
   "52":{
      "address":"14 Tống Duy Tân",
      "district":"Quận Hoàn Kiếm",
      "image":"BJXdlVG6e_1.jpg",
      "lat":21.029336,
      "long":105.843621,
      "name":"Xofa Cafe - Tống Duy Tân",
      "octime":"  12:00 AM - 12:00 AM",
      "rate":7.7,
      "type":"Café/Dessert",
      "id":"BJXdlVG6e"
   },
   "53":{
      "address":"156 Nguyễn Lân",
      "district":"Quận Thanh Xuân",
      "image":"Sy9_lEf6x_1.jpg",
      "lat":20.9899247,
      "long":105.8370893,
      "name":"K's Coffee",
      "octime":"  09:00 AM - 10:30 PM",
      "rate":7.2,
      "type":"Café/Dessert",
      "id":"Sy9_lEf6x"
   },
   "54":{
      "address":"169 Vệ Hồ ",
      "district":"Quận Tây Hồ",
      "image":"Byl9dgEfpx_1.jpg",
      "lat":21.0648465105518,
      "long":105.8106904104352,
      "name":"Zun Kun's Coffee",
      "octime":"  07:30 AM - 11:00 PM",
      "rate":7.4,
      "type":"Café/Dessert",
      "id":"Byl9dgEfpx"
   },
   "55":{
      "address":"Tầng 2, 13 Đinh Tiên Hoàng, P. Hàng Bạc",
      "district":"Quận Hoàn Kiếm",
      "image":"Syl2Ol4MTe_1.jpg",
      "lat":21.0319449,
      "long":105.852246,
      "name":"Đinh Cafe - Đinh Tiên Hoàng",
      "octime":"   07:00 AM - 10:30 PM",
      "rate":7.6,
      "type":"Café/Dessert",
      "id":"Syl2Ol4MTe"
   },
   "56":{
      "address":"31 Bà Triệu",
      "district":"Quận Hoàn Kiếm",
      "image":"r1h_l4zal_1.jpg",
      "lat":21.023811,
      "long":105.851063,
      "name":"Minh Tiến Coffee - Bà Triệu",
      "octime":"  06:00 AM - 10:00 PM",
      "rate":7.2,
      "type":"Café/Dessert",
      "id":"r1h_l4zal"
   },
   "57":{
      "address":"22 Đường Thành",
      "district":"Quận Hoàn Kiếm",
      "image":"HkfKeNfag_1.jpg",
      "lat":21.0321381939961,
      "long":105.8465391397476,
      "name":"Năng Cafe - Đường Thành",
      "octime":"   07:00 AM - 11:00 PM",
      "rate":7.1,
      "type":"Café/Dessert",
      "id":"HkfKeNfag"
   },
   "58":{
      "address":"133 Nguyễn Đình Thi",
      "district":"Quận Tây Hồ",
      "image":"H1mYeVzTx_1.jpg",
      "lat":21.0421043669177,
      "long":105.8260202407836,
      "name":"Mộc Miên Coffee - Cafe Đọc Sách",
      "octime":"   07:00 AM - 11:00 PM",
      "rate":7.1,
      "type":"Café/Dessert",
      "id":"H1mYeVzTx"
   },
   "59":{
      "address":"Tầng 2, 114 Trấn Vũ",
      "district":"Quận Ba Đình",
      "image":"S1eBFeNGax_1.jpg",
      "lat":21.044534,
      "long":105.841509,
      "name":"Ailu Coffee - Cafe Mèo - Trấn Vũ",
      "octime":"  08:00 AM - 10:00 PM",
      "rate":7.2,
      "type":"Café/Dessert",
      "id":"S1eBFeNGax"
   },
   "60":{
      "address":"44 Võ Thị Sáu",
      "district":"Quận Hai Bà Trưng",
      "image":"SySFlEz6g_1.jpg",
      "lat":21.0063923,
      "long":105.8547145,
      "name":"The0 Coffee - Cafe Phim - Võ Thị Sáu",
      "octime":"  07:00 AM - 11:00 PM",
      "rate":8,
      "type":"Café/Dessert",
      "id":"SySFlEz6g"
   },
   "61":{
      "address":"7 Ngách 37 Ngõ 167 Tây Sơn",
      "district":"Quận Đống Đa",
      "image":"SkuYl4Max_1.jpg",
      "lat":21.0092668000638,
      "long":105.8273050189018,
      "name":"Meo's House Coffee - Cafe Mèo",
      "octime":"  07:30 AM - 10:45 PM",
      "rate":7.9,
      "type":"Café/Dessert",
      "id":"SkuYl4Max"
   },
   "62":{
      "address":"12A Hàng Chuối, P. Phạm Đình Hổ",
      "district":"Quận Hai Bà Trưng",
      "image":"r1RYgNfpe_1.jpg",
      "lat":21.018035,
      "long":105.856887,
      "name":"Rialto Cafe",
      "octime":"   07:00 AM - 10:30 PM",
      "rate":7,
      "type":"Café/Dessert",
      "id":"r1RYgNfpe"
   },
   "63":{
      "address":"Tầng 2 + 3, 11 Hàng Gai",
      "district":"Quận Hoàn Kiếm",
      "image":"ByiKl4zpe_1.jpg",
      "lat":21.032216,
      "long":105.850439,
      "name":"Radio Cafe",
      "octime":"   08:30 AM - 10:30 PM",
      "rate":7.2,
      "type":"Café/Dessert",
      "id":"ByiKl4zpe"
   },
   "64":{
      "address":"6B Cửa Đông, P. Cửa Đông",
      "district":"Quận Hoàn Kiếm",
      "image":"S1htgVGpe_1.jpg",
      "lat":21.0345279,
      "long":105.846799,
      "name":"Miu's Cafe",
      "octime":"   07:00 AM - 10:30 PM",
      "rate":6.7,
      "type":"Café/Dessert",
      "id":"S1htgVGpe"
   },
   "65":{
      "address":"5 Trần Nguyên Hãn",
      "district":"Quận Hoàn Kiếm",
      "image":"r115gNG6e_1.jpg",
      "lat":21.028977,
      "long":105.856755,
      "name":"Tom's Cafe",
      "octime":"  07:00 AM - 10:00 PM",
      "rate":6.4,
      "type":"Café/Dessert",
      "id":"r115gNG6e"
   },
   "66":{
      "address":"4 Ấu Triệu, P. Hàng Trống",
      "district":"Quận Hoàn Kiếm",
      "image":"SkbceNGpe_1.jpg",
      "lat":21.0291484,
      "long":105.84921,
      "name":"Marilyn Cafe",
      "octime":"   07:00 AM - 10:30 PM",
      "rate":7.2,
      "type":"Nhà hàng, ",
      "id":"SkbceNGpe"
   },
   "67":{
      "address":"91C Đặng Văn Ngữ, P. Trung Tự",
      "district":"Quận Đống Đa",
      "image":"ry4qxEGae_1.jpg",
      "lat":21.011165,
      "long":105.830827,
      "name":"Fun Cafe",
      "octime":"   08:00 AM - 11:00 PM",
      "rate":6.1,
      "type":"Café/Dessert",
      "id":"ry4qxEGae"
   },
   "68":{
      "address":"89 Mã Mây",
      "district":"Quận Hoàn Kiếm",
      "image":"BJUcl4fpx_1.jpg",
      "lat":21.034374,
      "long":105.85339,
      "name":"Nola Cafe",
      "octime":"  10:00 AM - 11:00 PM",
      "rate":7.5,
      "type":"Café/Dessert",
      "id":"BJUcl4fpx"
   },
   "69":{
      "address":"23 Ngõ 82 Chùa Láng, P. Láng Thượng",
      "district":"Quận Đống Đa",
      "image":"r1e8cxNf6g_1.jpg",
      "lat":21.024164,
      "long":105.806923,
      "name":"Sailing Cafe",
      "octime":"   07:00 AM - 10:30 PM",
      "rate":7.1,
      "type":"Café/Dessert",
      "id":"r1e8cxNf6g"
   },
   "70":{
      "address":"219 Trần Đại Nghĩa",
      "district":"Quận Hai Bà Trưng",
      "image":"SkO9lVz6e_1.jpg",
      "lat":20.999178,
      "long":105.845659,
      "name":"Holic Cafe",
      "octime":"   08:00 AM - 10:30 PM",
      "rate":7.7,
      "type":"Café/Dessert",
      "id":"SkO9lVz6e"
   },
   "71":{
      "address":"112B9 Tập Thể Kim Liên, Phạm Ngọc Thạch",
      "district":"Quận Đống Đa",
      "image":"Hyj5lEGpl_1.jpg",
      "lat":21.009132,
      "long":105.835751,
      "name":"Susu Cafe",
      "octime":"   07:00 AM - 11:00 PM",
      "rate":7.9,
      "type":"Café/Dessert",
      "id":"Hyj5lEGpl"
   },
   "72":{
      "address":"4 Ấu Triệu, P. Hàng Trống",
      "district":"Quận Hoàn Kiếm",
      "image":"B1R9gNM6e_1.jpg",
      "lat":21.0291484,
      "long":105.84921,
      "name":"Marilyn Cafe",
      "octime":"   07:00 AM - 10:30 PM",
      "rate":7.2,
      "type":"Nhà hàng, ",
      "id":"B1R9gNM6e"
   },
   "73":{
      "address":"9 Hồ Đắc Di",
      "district":"Quận Đống Đa",
      "image":"H1yjgNfpe_1.jpg",
      "lat":21.011731,
      "long":105.830882,
      "name":"Valeto Coffee",
      "octime":"  07:00 AM - 10:00 PM",
      "rate":6,
      "type":"Café/Dessert",
      "id":"H1yjgNfpe"
   },
   "74":{
      "address":"38A Cao Bá Quát",
      "district":"Quận Ba Đình",
      "image":"B1uigVMTe_1.jpg",
      "lat":21.030237,
      "long":105.837709,
      "name":"Kei - Korean Food & Coffee Style - Cao Bá Quát",
      "octime":"  08:00 AM - 10:00 PM",
      "rate":7.2,
      "type":"Quán ăn",
      "id":"B1uigVMTe"
   },
   "75":{
      "address":"22 Nguyễn Trung Trực",
      "district":"Quận Ba Đình",
      "image":"rJQsxVfax_1.jpg",
      "lat":21.0410228635752,
      "long":105.8479711416015,
      "name":"Kafeville Cafe",
      "octime":"  08:00 AM - 11:00 PM",
      "rate":7.7,
      "type":"Café/Dessert",
      "id":"rJQsxVfax"
   },
   "76":{
      "address":"44 Đoàn Trần Nghiệp",
      "district":"Quận Hai Bà Trưng",
      "image":"Hk9jeVf6g_1.jpg",
      "lat":21.0118001017464,
      "long":105.8481457829475,
      "name":"Tết Coffee",
      "octime":"  08:00 AM - 10:00 PM",
      "rate":7.5,
      "type":"Café/Dessert",
      "id":"Hk9jeVf6g"
   },
   "77":{
      "address":"81 Đặng Văn Ngữ",
      "district":"Quận Đống Đa",
      "image":"SylOjl4M6x_1.jpg",
      "lat":21.010181,
      "long":105.830802,
      "name":"Xưởng Coffee",
      "octime":"  08:00 AM - 10:00 PM",
      "rate":6.9,
      "type":"Café/Dessert",
      "id":"SylOjl4M6x"
   },
   "78":{
      "address":"45 Lý Quốc Sư",
      "district":"Quận Hoàn Kiếm",
      "image":"H1jieEMax_1.jpg",
      "lat":21.029302,
      "long":105.8493949999999,
      "name":"Vpresso Coffee",
      "octime":"  06:00 AM - 10:00 PM",
      "rate":7.6,
      "type":"Café/Dessert",
      "id":"H1jieEMax"
   },
   "79":{
      "address":"20 Hàng Tre",
      "district":"Quận Hoàn Kiếm",
      "image":"rkU2xNMTe_1.jpg",
      "lat":21.0331769,
      "long":105.8550938999999,
      "name":"20th Coffee",
      "octime":"  09:00 AM - 12:00 AM",
      "rate":7.7,
      "type":"Café/Dessert",
      "id":"rkU2xNMTe"
   },
   "80":{
      "address":"305 Nguyễn Khang, P. Yên Hòa",
      "district":"Quận Cầu Giấy",
      "image":"S1r3lEMpe_1.jpg",
      "lat":21.0243454766802,
      "long":105.797108374536,
      "name":"Macada Coffee",
      "octime":"  08:00 AM - 10:30 PM",
      "rate":7.6,
      "type":"Café/Dessert",
      "id":"S1r3lEMpe"
   },
   "81":{
      "address":"213 Xã Đàn",
      "district":"Quận Đống Đa",
      "image":"rJ72l4G6g_1.jpg",
      "lat":21.016002,
      "long":105.832162,
      "name":"Kodo Cafe - Xã Đàn",
      "octime":"   08:00 AM - 10:30 PM",
      "rate":7.4,
      "type":"Café/Dessert",
      "id":"rJ72l4G6g"
   },
   "82":{
      "address":"25 Hàng Gà",
      "district":"Quận Hoàn Kiếm",
      "image":"B1eS3xEzax_1.jpg",
      "lat":21.035715052804,
      "long":105.8470973744988,
      "name":"Cabine Hanoi Cafe - Hàng Gà",
      "octime":"  08:00 AM - 11:00 PM",
      "rate":7.6,
      "type":"Café/Dessert",
      "id":"B1eS3xEzax"
   },
   "83":{
      "address":"Tầng 1 Tòa Nhà Việt Á - Duy Tân",
      "district":"Quận Cầu Giấy",
      "image":"ryqnxEMTl_1.jpg",
      "lat":21.030468,
      "long":105.787584,
      "name":"Twitter Beans Coffee",
      "octime":"   07:00 AM - 10:30 PM",
      "rate":7.6,
      "type":"Café/Dessert",
      "id":"ryqnxEMTl"
   },
   "84":{
      "address":"32 Chùa Láng",
      "district":"Quận Đống Đa",
      "image":"SyanlEfpx_1.jpg",
      "lat":21.023013,
      "long":105.808403,
      "name":"The Coffee Inn - Chùa Láng",
      "octime":"  07:30 AM - 11:00 PM",
      "rate":7,
      "type":"Café/Dessert",
      "id":"SyanlEfpx"
   },
   "85":{
      "address":"117 GIảng Võ",
      "district":"Quận Ba Đình",
      "image":"ryyae4zae_1.jpg",
      "lat":21.027484,
      "long":105.824255,
      "name":"Hot Rock Cafe",
      "octime":"   07:00 AM - 11:00 PM",
      "rate":6.8,
      "type":"Nhà hàng",
      "id":"ryyae4zae"
   },
   "86":{
      "address":"1 Nguyễn Khắc Cần",
      "district":"Quận Hoàn Kiếm",
      "image":"SkgkTxVGae_1.jpg",
      "lat":21.0243830314132,
      "long":105.8557957783341,
      "name":"Metro Cafe - Nguyễn Khắc Cần",
      "octime":"   07:00 AM - 10:00 PM",
      "rate":7.1,
      "type":"Café/Dessert",
      "id":"SkgkTxVGae"
   },
   "87":{
      "address":"63 Cầu Gỗ, Hàng Bạc, Quận Hoàn Kiếm, Hà Nội",
      "district":"Quận Hoàn Kiếm",
      "image":"r1-agNzal_1.jpg",
      "lat":21.032176,
      "long":105.852978,
      "name":"I-Feel Cafe & Lounge",
      "octime":"  08:00 AM - 11:30 PM",
      "rate":7.6,
      "type":"Café/Dessert, ",
      "id":"r1-agNzal"
   },
   "88":{
      "address":"86 Trần Quốc Hoàn",
      "district":"Quận Cầu Giấy",
      "image":"BJXaxEMag_1.jpg",
      "lat":21.0416337,
      "long":105.7863717999999,
      "name":"Yell Coffee - Trần Quốc Hoàn",
      "octime":"  08:00 AM - 11:00 PM",
      "rate":7.3,
      "type":"Café/Dessert",
      "id":"BJXaxEMag"
   },
   "89":{
      "address":"2 Hàng Tre",
      "district":"Quận Hoàn Kiếm",
      "image":"rJeOpgNfpl_1.jpg",
      "lat":21.0338070925225,
      "long":105.8547822386026,
      "name":"Cường Cafe - Hàng Tre",
      "octime":"  07:00 AM - 10:00 PM",
      "rate":7.1,
      "type":"Café/Dessert",
      "id":"rJeOpgNfpl"
   },
   "90":{
      "address":"27 Chùa Láng",
      "district":"Quận Đống Đa",
      "image":"SkOagVG6g_1.jpg",
      "lat":21.022976,
      "long":105.807817,
      "name":"T House Coffee",
      "octime":"   08:00 AM - 11:00 PM",
      "rate":7.1,
      "type":"Café/Dessert",
      "id":"SkOagVG6g"
   },
   "91":{
      "address":"Ngõ 20B Núi Trúc",
      "district":"Quận Ba Đình",
      "image":"rJKpe4zpl_1.jpg",
      "lat":21.0279203406745,
      "long":105.8245600764435,
      "name":"Yupio Homemade Cafe - Núi Trúc",
      "octime":"  09:00 AM - 10:00 PM",
      "rate":7.3,
      "type":"Café/Dessert, ",
      "id":"rJKpe4zpl"
   },
   "92":{
      "address":"14 Phan Huy Ích",
      "district":"Quận Ba Đình",
      "image":"S1c6lNMag_1.jpg",
      "lat":21.041506,
      "long":105.845591,
      "name":"Manzi - Bar & Cafe",
      "octime":"  09:00 AM - 11:30 PM",
      "rate":7.6,
      "type":"Café/Dessert",
      "id":"S1c6lNMag"
   },
   "93":{
      "address":"93 Nguyễn Trãi",
      "district":"Quận Thanh Xuân",
      "image":"SJxlRe4f6x_1.jpg",
      "lat":21.0012578534904,
      "long":105.8180933073163,
      "name":"Firefly Coffee - Nguyễn Trãi",
      "octime":"  07:00 AM - 11:00 PM",
      "rate":6.8,
      "type":"Café/Dessert",
      "id":"SJxlRe4f6x"
   },
   "94":{
      "address":"23M Hai Bà Trưng",
      "district":"Quận Hoàn Kiếm",
      "image":"Skg0lNGpe_1.jpg",
      "lat":21.0240748,
      "long":105.8530872,
      "name":"The Coffee House - Hai Bà Trưng",
      "octime":"  08:00 AM - 10:00 PM",
      "rate":7.7,
      "type":"Café/Dessert",
      "id":"Skg0lNGpe"
   },
   "95":{
      "address":"Tầng 2, 2B Trần Thánh Tông",
      "district":"Quận Hai Bà Trưng",
      "image":"H1WAeNz6x_1.jpg",
      "lat":21.0168233859211,
      "long":105.8591562509536,
      "name":"Rand Moroc & Coffee",
      "octime":"    07:30 AM - 10:00 PM",
      "rate":8.1,
      "type":"Café/Dessert",
      "id":"H1WAeNz6x"
   },
   "96":{
      "address":"5 Khương Trung",
      "district":"Quận Thanh Xuân",
      "image":"HJ7Ag4f6g_1.jpg",
      "lat":21.0007482811453,
      "long":105.8174693584442,
      "name":"Aroi Dessert Cafe - Khương Trung",
      "octime":"   10:00 AM - 10:30 PM",
      "rate":7.2,
      "type":"Café/Dessert, ",
      "id":"HJ7Ag4f6g"
   },
   "97":{
      "address":"192A Quán Thánh",
      "district":"Quận Ba Đình",
      "image":"HyDCg4M6x_1.jpg",
      "lat":21.0428400400642,
      "long":105.837929219574,
      "name":"Home Coffee Store - Quán Thánh",
      "octime":"   08:00 AM - 10:30 PM",
      "rate":7.1,
      "type":"Café/Dessert",
      "id":"HyDCg4M6x"
   },
   "98":{
      "address":"13 Nhà Thờ",
      "district":"Quận Hoàn Kiếm",
      "image":"r1O0lVfae_1.jpg",
      "lat":21.028668,
      "long":105.8487999999999,
      "name":"RuNam Cafe - Nhà Thờ",
      "octime":"  07:00 AM - 11:00 PM",
      "rate":7.5,
      "type":"Café/Dessert",
      "id":"r1O0lVfae"
   },
   "99":{
      "address":"28 Chùa Láng",
      "district":"Quận Đống Đa",
      "image":"SkaClEfTg_1.jpg",
      "lat":21.022911,
      "long":105.8087759999999,
      "name":"Neverland Food & Coffee",
      "octime":"  08:00 AM - 10:00 PM",
      "rate":7.4,
      "type":"Café/Dessert",
      "id":"SkaClEfTg"
   },
   "100":{
      "address":"34 Nguyễn Bỉnh Khiêm",
      "district":"Quận Hai Bà Trưng",
      "image":"SynRxEG6l_1.jpg",
      "lat":21.0155045163489,
      "long":105.8482705056667,
      "name":"Ceci - Cafe & Bánh Ngọt",
      "octime":"  08:00 AM - 11:00 PM",
      "rate":7.5,
      "type":"Café/Dessert",
      "id":"SynRxEG6l"
   },
   "101":{
      "address":"50 Lò Đúc",
      "district":"Quận Hai Bà Trưng",
      "image":"SkmJZ4MTl_1.jpg",
      "lat":21.01608,
      "long":105.8563678,
      "name":"Fika Cafe - Lò Đúc",
      "octime":"  07:00 AM - 11:00 PM",
      "rate":7.5,
      "type":"Café/Dessert",
      "id":"SkmJZ4MTl"
   },
   "102":{
      "address":"1C Hồ Đắc Di",
      "district":"Quận Đống Đa",
      "image":"BkWkWVfTx_1.jpg",
      "lat":21.0112713636445,
      "long":105.8306723106201,
      "name":"KAT Coffee - Hồ Đắc Di",
      "octime":"  9:00 AM - 9:00 PM",
      "rate":7.4,
      "type":"Café/Dessert",
      "id":"BkWkWVfTx"
   },
   "103":{
      "address":"111K2 Ngõ 48 Tạ Quang Bửu",
      "district":"Quận Hai Bà Trưng",
      "image":"ByI1ZEz6l_1.jpg",
      "lat":21.0009836612162,
      "long":105.8490054309368,
      "name":"Sky1991 - Coffee & Hot Dog",
      "octime":"  08:00 AM - 11:00 PM",
      "rate":7.3,
      "type":"Café/Dessert",
      "id":"ByI1ZEz6l"
   },
   "104":{
      "address":"61 Bà Triệu",
      "district":"Quận Hoàn Kiếm",
      "image":"B1SyWEfpe_1.jpg",
      "lat":21.0194538918464,
      "long":105.8495995402336,
      "name":"Lion Coffee - Bà Triệu",
      "octime":"  07:00 AM - 10:00 PM",
      "rate":7.5,
      "type":"Café/Dessert",
      "id":"B1SyWEfpe"
   },
   "105":{
      "address":"102 Vũ Trọng Phụng",
      "district":"Quận Thanh Xuân",
      "image":"SJK1-Vz6g_1.jpg",
      "lat":21.000796,
      "long":105.807279,
      "name":"The Coffee KAT",
      "octime":"  07:00 AM - 11:00 PM",
      "rate":7.6,
      "type":"Café/Dessert",
      "id":"SJK1-Vz6g"
   },
   "106":{
      "address":"3 Vạn Phúc",
      "district":"Quận Ba Đình",
      "image":"BJl61ZNz6l_1.jpg",
      "lat":21.033133,
      "long":105.817213,
      "name":"Longing - Cafe Tea Rooms",
      "octime":"  07:00 AM - 11:00 PM",
      "rate":7.7,
      "type":"Café/Dessert, ",
      "id":"BJl61ZNz6l"
   },
   "107":{
      "address":"295 Tây Sơn",
      "district":"Quận Đống Đa",
      "image":"ByakW4f6g_1.jpg",
      "lat":21.004307,
      "long":105.822397,
      "name":"Meow Coffee - Tây Sơn",
      "octime":"  09:00 AM - 10:00 PM",
      "rate":7.1,
      "type":"Café/Dessert",
      "id":"ByakW4f6g"
   },
   "108":{
      "address":"24B4 Phạm Ngọc Thạch",
      "district":"Quận Đống Đa",
      "image":"B14gW4Mpx_1.jpg",
      "lat":21.0099250119393,
      "long":105.8360470086336,
      "name":"Chevi - Tea & Coffee - Phạm Ngọc Thạch",
      "octime":"  09:00 AM - 11:00 PM",
      "rate":6.8,
      "type":"Café/Dessert",
      "id":"B14gW4Mpx"
   },
   "109":{
      "address":"Tầng 1 - Tầng 65, Lotte Center, 54 Liễu Giai",
      "district":"Quận Ba Đình",
      "image":"B1gg-EzTg_1.jpg",
      "lat":21.0321356904778,
      "long":105.812754034996,
      "name":"Angel In US Coffee - Lotte Center",
      "octime":"  09:00 AM - 11:00 PM",
      "rate":7.5,
      "type":"Café/Dessert",
      "id":"B1gg-EzTg"
   },
   "110":{
      "address":"48 Hàng Bông",
      "district":"Quận Hoàn Kiếm",
      "image":"ryxDe-Ezpl_1.jpg",
      "lat":21.030747,
      "long":105.847878,
      "name":"The Seed Bakery & Cafe - Hàng Bông",
      "octime":"  07:00 AM - 10:00 PM",
      "rate":7.2,
      "type":"Café/Dessert",
      "id":"ryxDe-Ezpl"
   },
   "111":{
      "address":"317 Nguyễn Khang",
      "district":"Quận Cầu Giấy",
      "image":"rkbwx-4fal_1.jpg",
      "lat":21.0241792968733,
      "long":105.7974788546562,
      "name":"Cup Of Tea Cafe & Bistro - Nguyễn Khang",
      "octime":"   07:30 AM - 10:00 PM",
      "rate":7.7,
      "type":"Café/Dessert",
      "id":"rkbwx-4fal"
   },
   "112":{
      "address":"73 Hai Bà Trưng",
      "district":"Quận Hoàn Kiếm",
      "image":"SywlZ4GTl_1.jpg",
      "lat":21.0236526,
      "long":105.8510905,
      "name":"Crema Cafe",
      "octime":"   07:00 AM - 10:00 PM",
      "rate":6.8,
      "type":"Café/Dessert",
      "id":"SywlZ4GTl"
   },
   "113":{
      "address":"81B Trần Quốc Toản",
      "district":"Quận Hoàn Kiếm",
      "image":"SJsgb4MTg_1.jpg",
      "lat":21.020884,
      "long":105.845675,
      "name":"Cơm 81 - Cơm Văn Phòng & Cafe",
      "octime":"  08:00 AM - 10:00 PM",
      "rate":6,
      "type":"Café/Dessert, ",
      "id":"SJsgb4MTg"
   },
   "114":{
      "address":"25B Phố Huế",
      "district":"Quận Hoàn Kiếm",
      "image":"S1k--4zpl_1.jpg",
      "lat":21.018753,
      "long":105.851759,
      "name":"Lemon Grasse Cafe",
      "octime":"   09:00 AM - 11:00 PM",
      "rate":7,
      "type":"Café/Dessert",
      "id":"S1k--4zpl"
   },
   "115":{
      "address":"108 B1 Tập Thể Đại Học Y, Tôn Thất Tùng, P. Trung Tự",
      "district":"Quận Đống Đa",
      "image":"HJTgbVfpx_1.jpg",
      "lat":21.002521,
      "long":105.830022,
      "name":"Y Cafe",
      "octime":"   07:00 AM - 10:30 PM",
      "rate":8,
      "type":"Café/Dessert",
      "id":"HJTgbVfpx"
   },
   "116":{
      "address":"25 Ngô Văn Sở, P. Trần Hưng Đạo",
      "district":"Quận Hoàn Kiếm",
      "image":"S1CxbEzTg_1.jpg",
      "lat":21.0209009,
      "long":105.848607,
      "name":"Music Fancier Cafe",
      "octime":"   07:00 AM - 10:30 PM",
      "rate":7.3,
      "type":"Café/Dessert",
      "id":"S1CxbEzTg"
   },
   "117":{
      "address":"6 Hàng Tre",
      "district":"Quận Hoàn Kiếm",
      "image":"By--ZVzpe_1.jpg",
      "lat":21.033583,
      "long":105.854833,
      "name":"Thức - Coffee & Shisha",
      "octime":"  08:00 AM - 10:00 PM",
      "rate":8.3,
      "type":"Café/Dessert",
      "id":"By--ZVzpe"
   },
   "118":{
      "address":"84 Hàng Mã",
      "district":"Quận Hoàn Kiếm",
      "image":"HkEZbEGpe_1.jpg",
      "lat":21.036902,
      "long":105.849344,
      "name":"Ô Pama Coffee",
      "octime":"  09:00 AM - 11:30 PM",
      "rate":8.8,
      "type":"Café/Dessert",
      "id":"HkEZbEGpe"
   },
   "119":{
      "address":"79D Lý Nam Đế",
      "district":"Quận Hoàn Kiếm",
      "image":"S1xEZ-4zTl_1.jpg",
      "lat":21.0333786821395,
      "long":105.8446760103106,
      "name":"Cookie Jar Cafe - Lý Nam Đế",
      "octime":"   07:00 AM - 10:00 PM",
      "rate":6.8,
      "type":"Café/Dessert",
      "id":"S1xEZ-4zTl"
   },
   "120":{
      "address":"2 Hàng Cá",
      "district":"Quận Hoàn Kiếm",
      "image":"H1DWZNGpl_1.jpg",
      "lat":21.036367,
      "long":105.849598,
      "name":"Cafe Nhĩ - Hàng Cá",
      "octime":"   07:00 AM - 10:00 PM",
      "rate":6.8,
      "type":"Café/Dessert",
      "id":"H1DWZNGpl"
   },
   "121":{
      "address":"103 Vạn Phúc",
      "district":"Quận Ba Đình",
      "image":"BJK-bVMpx_1.jpg",
      "lat":21.033494,
      "long":105.81513,
      "name":"Carambola Cafe",
      "octime":"   07:00 AM - 10:00 PM",
      "rate":7.7,
      "type":"Café/Dessert",
      "id":"BJK-bVMpx"
   },
   "122":{
      "address":"63 Hàng Bún",
      "district":"Quận Ba Đình",
      "image":"rkAbW4fax_1.jpg",
      "lat":21.040567,
      "long":105.843862,
      "name":"Ấy Cafe",
      "octime":"   07:00 AM - 11:00 PM",
      "rate":7.3,
      "type":"Café/Dessert",
      "id":"rkAbW4fax"
   },
   "123":{
      "address":"Tầng 1, Tòa Nhà M5, 91 Nguyễn Chí Thanh",
      "district":"Quận Đống Đa",
      "image":"SJx0WbNGal_1.jpg",
      "lat":21.0200615,
      "long":105.8105583,
      "name":"IBOX Cafe",
      "octime":"  07:00 AM - 11:00 PM",
      "rate":7.2,
      "type":"Café/Dessert",
      "id":"SJx0WbNGal"
   },
   "124":{
      "address":"6 Ngõ 71 Trần Quang Diệu",
      "district":"Quận Đống Đa",
      "image":"SylMbNzae_1.jpg",
      "lat":21.014597,
      "long":105.824089,
      "name":"Tungbook Cafe",
      "octime":"  07:00 AM - 10:30 PM",
      "rate":7.5,
      "type":"Café/Dessert",
      "id":"SylMbNzae"
   },
   "125":{
      "address":"42 Lê Trọng Tấn",
      "district":"Quận Thanh Xuân",
      "image":"Bkl9zbVfTl_1.jpg",
      "lat":20.997102,
      "long":105.830562,
      "name":"Up Coffee",
      "octime":"  07:00 AM - 10:30 PM",
      "rate":7.3,
      "type":"Café/Dessert",
      "id":"Bkl9zbVfTl"
   },
   "126":{
      "address":"1 Trúc Bạch, P. Trúc Bạch",
      "district":"Quận Ba Đình",
      "image":"Hk8GZNG6l_1.jpg",
      "lat":21.0494024,
      "long":105.839188,
      "name":"Havana Cafe - Trúc Bạch",
      "octime":"   07:00 AM - 11:00 PM",
      "rate":6.9,
      "type":"Café/Dessert",
      "id":"Hk8GZNG6l"
   },
   "127":{
      "address":"Số 7 Ngõ 83 Nguyễn Khang, Yên Hòa",
      "district":"Quận Cầu Giấy",
      "image":"ByPMZNMTl_1.jpg",
      "lat":21.027019,
      "long":105.798211,
      "name":"Fe Cafe",
      "octime":"   08:00 AM - 10:30 PM",
      "rate":6.7,
      "type":"Café/Dessert",
      "id":"ByPMZNMTl"
   },
   "128":{
      "address":"57 Tràng Tiền",
      "district":"Quận Hoàn Kiếm",
      "image":"S15G-4Mpl_1.jpg",
      "lat":21.025291,
      "long":105.853687,
      "name":"Bodega Ice Cream & Coffee",
      "octime":"  07:00 AM - 10:30 PM",
      "rate":7.5,
      "type":"Café/Dessert",
      "id":"S15G-4Mpl"
   },
   "129":{
      "address":"29 Nguyễn Khang",
      "district":"Quận Cầu Giấy",
      "image":"H10z-EMpl_1.jpg",
      "lat":21.015972,
      "long":105.803447,
      "name":"G4U - Acoustic Cafe",
      "octime":"   07:00 AM - 11:00 PM",
      "rate":6.9,
      "type":"Café/Dessert",
      "id":"H10z-EMpl"
   },
   "130":{
      "address":"35 Lê Đại Hành",
      "district":"Quận Hai Bà Trưng",
      "image":"rJJXZNM6x_1.jpg",
      "lat":21.011505,
      "long":105.848293,
      "name":"Lân Cafe",
      "octime":"   07:00 AM - 11:00 PM",
      "rate":7.3,
      "type":"Café/Dessert",
      "id":"rJJXZNM6x"
   },
   "131":{
      "address":"70 Trần Thái Tông",
      "district":"Quận Cầu Giấy",
      "image":"ByfmbNfTx_1.jpg",
      "lat":21.032862,
      "long":105.788927,
      "name":"Jima Cafe",
      "octime":"   07:30 AM - 10:00 PM",
      "rate":7.2,
      "type":"Café/Dessert",
      "id":"ByfmbNfTx"
   },
   "132":{
      "address":"57 Tràng Tiền",
      "district":"Quận Hoàn Kiếm",
      "image":"B1-XWVGpe_1.jpg",
      "lat":21.025291,
      "long":105.853687,
      "name":"Bodega Ice Cream & Coffee",
      "octime":"  07:00 AM - 10:30 PM",
      "rate":7.5,
      "type":"Café/Dessert",
      "id":"B1-XWVGpe"
   },
   "133":{
      "address":"29 Nguyễn Khang",
      "district":"Quận Cầu Giấy",
      "image":"H1S7Z4fal_1.jpg",
      "lat":21.015972,
      "long":105.803447,
      "name":"G4U - Acoustic Cafe",
      "octime":"   07:00 AM - 11:00 PM",
      "rate":6.9,
      "type":"Café/Dessert",
      "id":"H1S7Z4fal"
   },
   "134":{
      "address":"566 Trương Định, P. Tân Mai",
      "district":"Quận Hoàng Mai",
      "image":"r1eBXWEMpe_1.jpg",
      "lat":20.9835144,
      "long":105.8459705,
      "name":"Urban Coffee - Trương Định",
      "octime":"  07:30 AM - 11:00 PM",
      "rate":7.1,
      "type":"Café/Dessert",
      "id":"r1eBXWEMpe"
   },
   "135":{
      "address":"120B Đặng Văn Ngữ",
      "district":"Quận Đống Đa",
      "image":"SksXb4z6e_1.jpg",
      "lat":21.010899,
      "long":105.830838,
      "name":"La Gente Coffee Shop",
      "octime":"  07:00 AM - 11:00 PM",
      "rate":7.3,
      "type":"Café/Dessert",
      "id":"SksXb4z6e"
   },
   "136":{
      "address":"24 Tông Đản",
      "district":"Quận Hoàn Kiếm",
      "image":"HJYQZ4G6e_1.jpg",
      "lat":21.025537,
      "long":105.858048,
      "name":"Cosa Nostra - Cafe & Nhà Hàng",
      "octime":"  08:00 AM - 11:00 PM",
      "rate":7,
      "type":"Nhà hàng",
      "id":"HJYQZ4G6e"
   },
   "137":{
      "address":"130 Đường Ven Hồ Tây",
      "district":"Quận Tây Hồ",
      "image":"Hke6m-NM6x_1.jpg",
      "lat":21.0434921,
      "long":105.8233142,
      "name":"VÉLO Cafe",
      "octime":"  08:00 AM - 11:00 PM",
      "rate":6.7,
      "type":"Café/Dessert",
      "id":"Hke6m-NM6x"
   },
   "138":{
      "address":"Tầng 3 Chợ Hàng Da - Hàng Da Plaza , Hoàn Kiếm, Hà Nội",
      "district":"Quận Hoàn Kiếm",
      "image":"HJTQb4Mpx_1.jpg",
      "lat":21.0305919,
      "long":105.8466493999999,
      "name":"Avem Coffee House",
      "octime":"  08:30 AM - 11:00 PM",
      "rate":6.7,
      "type":"Nhà hàng, ",
      "id":"HJTQb4Mpx"
   },
   "139":{
      "address":"Ngõ 462 Đường Bưởi",
      "district":"Quận Ba Đình",
      "image":"HyJ4Z4Gal_1.jpg",
      "lat":21.0436113764745,
      "long":105.8071106672287,
      "name":"Nhà Sàn Art Cafe",
      "octime":"  08:30 AM - 11:00 PM",
      "rate":7.8,
      "type":"Café/Dessert",
      "id":"HyJ4Z4Gal"
   },
   "140":{
      "address":"63 Tuệ Tĩnh",
      "district":"Quận Hai Bà Trưng",
      "image":"Hk7NZNf6l_1.jpg",
      "lat":21.0152059,
      "long":105.8492105999999,
      "name":"Citi Coffee",
      "octime":"  07:00 AM - 11:00 PM",
      "rate":8,
      "type":"Café/Dessert",
      "id":"Hk7NZNf6l"
   },
   "141":{
      "address":"8 Ngõ 29 Nguyễn Chí Thanh",
      "district":"Quận Ba Đình",
      "image":"ryeDE-Nzax_1.jpg",
      "lat":21.0291765,
      "long":105.812754,
      "name":"Mucas Café",
      "octime":"  07:00 AM - 11:00 PM",
      "rate":7.4,
      "type":"Café/Dessert",
      "id":"ryeDE-Nzax"
   },
   "142":{
      "address":"5 Ngõ 411 Trường Chinh, Khương Trung",
      "district":"Quận Thanh Xuân",
      "image":"S1PEWNzal_1.jpg",
      "lat":20.9996806683954,
      "long":105.8186232486572,
      "name":"Cafe Xoan - Trường Chinh",
      "octime":"  09:00 AM - 10:30 PM",
      "rate":7.6,
      "type":"Café/Dessert",
      "id":"S1PEWNzal"
   },
   "143":{
      "address":"12/75 Nguyễn Công Hoan",
      "district":"Quận Ba Đình",
      "image":"BkOEbVzTl_1.jpg",
      "lat":21.027135,
      "long":105.812939,
      "name":"Book Coffee Shop",
      "octime":"  07:00 AM - 10:00 PM",
      "rate":7.7,
      "type":"Café/Dessert",
      "id":"BkOEbVzTl"
   },
   "144":{
      "address":"66 Hoàng Cầu Mới",
      "district":"Quận Đống Đa",
      "image":"Byq4WVMal_1.jpg",
      "lat":21.0161354720181,
      "long":105.8212371915578,
      "name":"Tre Coffee - Hoàng Cầu",
      "octime":"  07:00 AM - 11:15 PM",
      "rate":7.3,
      "type":"Café/Dessert",
      "id":"Byq4WVMal"
   },
   "145":{
      "address":"38 Hàm Long",
      "district":"Quận Hoàn Kiếm",
      "image":"HkyS-4Max_1.jpg",
      "lat":21.0196125657347,
      "long":105.8523954078555,
      "name":"Argento Cafe - Hàm Long",
      "octime":"   08:30 AM - 10:30 PM",
      "rate":6.9,
      "type":"Café/Dessert",
      "id":"HkyS-4Max"
   },
   "146":{
      "address":"35 Ngõ 84 Trần Quang Diệu",
      "district":"Quận Đống Đa",
      "image":"H1lSbNf6e_1.jpg",
      "lat":21.015286,
      "long":105.822898,
      "name":"Dzyn Cafe",
      "octime":"  07:00 AM - 12:00 PM",
      "rate":7.8,
      "type":"Café/Dessert",
      "id":"H1lSbNf6e"
   },
   "147":{
      "address":"102D1 Trần Huy Liệu ",
      "district":"Quận Ba Đình",
      "image":"r1e1HbNMag_1.jpg",
      "lat":21.027007,
      "long":105.822375,
      "name":"Delio Coffee - Giảng Võ",
      "octime":"  07:00 AM - 10:30 PM",
      "rate":7.4,
      "type":"Café/Dessert",
      "id":"r1e1HbNMag"
   },
   "148":{
      "address":"62 Ngõ 149 Giảng Võ",
      "district":"Quận Đống Đa",
      "image":"SyMSZ4zpx_1.jpg",
      "lat":21.0283102653842,
      "long":105.8260685205459,
      "name":"Ngầu Coffee - Giảng Võ",
      "octime":"  08:00 AM - 11:00 PM",
      "rate":7.2,
      "type":"Café/Dessert",
      "id":"SyMSZ4zpx"
   },
   "149":{
      "address":"56 Trần Nhân Tông",
      "district":"Quận Hai Bà Trưng",
      "image":"ryOSWVM6g_1.jpg",
      "lat":21.0171188311365,
      "long":105.8476576209068,
      "name":"Weather Girl Coffee & Tea",
      "octime":"  08:00 AM - 10:30 PM",
      "rate":6.5,
      "type":"Café/Dessert",
      "id":"ryOSWVM6g"
   },
   "150":{
      "address":"151 Nguyễn Văn Cừ",
      "district":"Quận Long Biên",
      "image":"SJl_r-4zal_1.jpg",
      "lat":21.0415486220033,
      "long":105.8701211214065,
      "name":"Doric Coffee & Food",
      "octime":"   07:30 AM - 11:00 PM",
      "rate":7.4,
      "type":"Café/Dessert",
      "id":"SJl_r-4zal"
   },
   "151":{
      "address":"60 Trấn Vũ",
      "district":"Quận Ba Đình",
      "image":"S1LrbNGpe_1.jpg",
      "lat":21.043568,
      "long":105.83864,
      "name":"Vento Coffee - Trấn Vũ",
      "octime":"  07:00 AM - 11:30 PM",
      "rate":7.6,
      "type":"Café/Dessert",
      "id":"S1LrbNGpe"
   },
   "152":{
      "address":"Nhà B1 Ngõ 235B Lạc Long Quân",
      "district":"Quận Cầu Giấy",
      "image":"H16S-NfTg_1.jpg",
      "lat":21.05129,
      "long":105.808041,
      "name":"Kimis' Coffee",
      "octime":"  08:00 AM - 10:00 PM",
      "rate":7.6,
      "type":"Café/Dessert",
      "id":"H16S-NfTg"
   },
   "153":{
      "address":"Tầng 2, 10 Dã Tượng",
      "district":"Quận Hoàn Kiếm",
      "image":"HkxI-4Mae_1.jpg",
      "lat":21.023549,
      "long":105.846571,
      "name":"Antique - Cafe Đồ Cổ",
      "octime":"  08:00 AM - 10:00 PM",
      "rate":7.8,
      "type":"Café/Dessert",
      "id":"HkxI-4Mae"
   },
   "154":{
      "address":"5 Ngõ 411 Trường Chinh, Khương Trung",
      "district":"Quận Thanh Xuân",
      "image":"SyJLbNf6l_1.jpg",
      "lat":20.9996806683954,
      "long":105.8186232486572,
      "name":"Cafe Xoan - Trường Chinh",
      "octime":"  09:00 AM - 10:30 PM",
      "rate":7.6,
      "type":"Café/Dessert",
      "id":"SyJLbNf6l"
   },
   "155":{
      "address":"102D1 Trần Huy Liệu ",
      "district":"Quận Ba Đình",
      "image":"BylJ8-4M6l_1.jpg",
      "lat":21.027007,
      "long":105.822375,
      "name":"Delio Coffee - Giảng Võ",
      "octime":"  07:00 AM - 10:30 PM",
      "rate":7.4,
      "type":"Café/Dessert",
      "id":"BylJ8-4M6l"
   },
   "156":{
      "address":"4 Nguyễn Khuyến, P. Văn Quán",
      "district":"Quận Hà Đông",
      "image":"Sy-iIZ4Gpe_1.jpg",
      "lat":20.9779778872477,
      "long":105.7883201166987,
      "name":"Meow Coffee",
      "octime":"  08:00 AM - 11:00 PM",
      "rate":6.2,
      "type":"Café/Dessert",
      "id":"Sy-iIZ4Gpe"
   },
   "157":{
      "address":"354 Bạch Mai",
      "district":"Quận Hai Bà Trưng",
      "image":"H1sLW4f6x_1.jpg",
      "lat":21.000568,
      "long":105.850504,
      "name":"A+ Coffee",
      "octime":"  07:30 AM - 11:00 PM",
      "rate":7.3,
      "type":"Café/Dessert",
      "id":"H1sLW4f6x"
   },
   "158":{
      "address":"21B Điện Biên Phủ",
      "district":"Quận Ba Đình",
      "image":"ry3UZ4zTl_1.jpg",
      "lat":21.029925,
      "long":105.841926,
      "name":"The Rustics Coffee",
      "octime":"  08:00 AM - 11:00 PM",
      "rate":7.2,
      "type":"Café/Dessert",
      "id":"ry3UZ4zTl"
   },
   "159":{
      "address":"15 Ngõ 12/41 Trần Quốc Hoàn",
      "district":"Quận Cầu Giấy",
      "image":"B1eiLb4zTg_1.jpg",
      "lat":21.0416584,
      "long":105.7865065999999,
      "name":"Italk Coffee",
      "octime":"  08:00 AM - 10:00 PM",
      "rate":7.6,
      "type":"Café/Dessert",
      "id":"B1eiLb4zTg"
   },
   "160":{
      "address":"43A Nguyễn Công Trứ",
      "district":"Quận Hai Bà Trưng",
      "image":"SJXDWNzTg_1.jpg",
      "lat":21.014049,
      "long":105.855,
      "name":"Rhino Coffee",
      "octime":"  08:00 AM - 11:00 PM",
      "rate":7.3,
      "type":"Café/Dessert",
      "id":"SJXDWNzTg"
   },
   "161":{
      "address":"370 Thái Hà",
      "district":"Quận Đống Đa",
      "image":"B1NDZVG6l_1.jpg",
      "lat":21.015853,
      "long":105.81624,
      "name":"Crema - Coffee & Tea",
      "octime":"  07:00 AM - 11:00 PM",
      "rate":6.5,
      "type":"Café/Dessert",
      "id":"B1NDZVG6l"
   },
   "162":{
      "address":"34 Nguyễn Văn Huyên (Kéo Dài)",
      "district":"Quận Cầu Giấy",
      "image":"Hk8vWEzag_1.jpg",
      "lat":21.034449,
      "long":105.797467,
      "name":"Highway Coffee",
      "octime":"  07:00 AM - 11:00 PM",
      "rate":8,
      "type":"Café/Dessert",
      "id":"Hk8vWEzag"
   },
   "163":{
      "address":"Nhà G4, Ngõ 233 Tô Hiệu",
      "district":"Quận Cầu Giấy",
      "image":"B1PvbVMTg_1.jpg",
      "lat":21.040365,
      "long":105.792657,
      "name":"Sailing Dessert & Cafe",
      "octime":"  08:00 AM - 11:00 PM",
      "rate":7.3,
      "type":"Café/Dessert",
      "id":"B1PvbVMTg"
   },
   "164":{
      "address":"65 Hàng Trống",
      "district":"Quận Hoàn Kiếm",
      "image":"SkldZVfTx_1.jpg",
      "lat":21.029993,
      "long":105.850108,
      "name":"Yamamoto Mattcha Cafe",
      "octime":"  10:00 AM - 10:30 PM",
      "rate":7.6,
      "type":"Café/Dessert",
      "id":"SkldZVfTx"
   },
   "165":{
      "address":"1 Ngõ 189 Giảng Võ",
      "district":"Quận Ba Đình",
      "image":"SJZObNMpg_1.jpg",
      "lat":21.025408852953,
      "long":105.822649347885,
      "name":"Bao Cấp Cafe",
      "octime":"  08:00 AM - 10:30 PM",
      "rate":7.4,
      "type":"Café/Dessert",
      "id":"SJZObNMpg"
   },
   "166":{
      "address":"34 Nguyễn Văn Huyên (Kéo Dài)",
      "district":"Quận Cầu Giấy",
      "image":"rJ0w-Ezpg_1.jpg",
      "lat":21.034449,
      "long":105.797467,
      "name":"Highway Coffee",
      "octime":"  07:00 AM - 11:00 PM",
      "rate":8,
      "type":"Café/Dessert",
      "id":"rJ0w-Ezpg"
   },
   "167":{
      "address":"86 Trần Quốc Hoàn",
      "district":"Quận Cầu Giấy",
      "image":"ByQub4fae_1.jpg",
      "lat":21.041659,
      "long":105.789169,
      "name":"Lau Café",
      "octime":"  07:30 AM - 11:00 PM",
      "rate":7.6,
      "type":"Café/Dessert",
      "id":"ByQub4fae"
   },
   "168":{
      "address":"28 Thanh Niên",
      "district":"Quận Tây Hồ",
      "image":"Bkn_bNzTg_1.jpg",
      "lat":21.049279,
      "long":105.838659,
      "name":"The Coffee Bean & Tea Leaf - Thanh Niên",
      "octime":"   07:00 AM - 10:30 PM",
      "rate":7.4,
      "type":"Café/Dessert",
      "id":"Bkn_bNzTg"
   },
   "169":{
      "address":"72 Ô Chợ Dừa",
      "district":"Quận Đống Đa",
      "image":"rygn_WVG6g_1.jpg",
      "lat":21.019617573192,
      "long":105.8275490999221,
      "name":"The Mango Coffee - Ô Chợ Dừa",
      "octime":"  09:00 AM - 11:00 PM",
      "rate":7.1,
      "type":"Café/Dessert",
      "id":"rygn_WVG6g"
   },
   "170":{
      "address":"25 Lê Đại Hành",
      "district":"Quận Hai Bà Trưng",
      "image":"rko_ZEzpl_1.jpg",
      "lat":21.009765,
      "long":105.849893,
      "name":"Amstel Coffee - Lê Đại Hành",
      "octime":"  09:00 AM - 09:00 PM",
      "rate":7.1,
      "type":"Café/Dessert",
      "id":"rko_ZEzpl"
   },
   "171":{
      "address":"29 Xuân Thuỷ",
      "district":"Quận Cầu Giấy",
      "image":"HJ0dZ4z6e_1.jpg",
      "lat":21.03603,
      "long":105.789108,
      "name":"Urban Station Coffee Takeaway - Xuân Thuỷ",
      "octime":"  09:00 AM - 10:00 PM",
      "rate":7.1,
      "type":"Café/Dessert",
      "id":"HJ0dZ4z6e"
   },
   "172":{
      "address":"48 Trần Đại Nghĩa",
      "district":"Quận Hai Bà Trưng",
      "image":"SkmYW4zax_1.jpg",
      "lat":21.0017148394946,
      "long":105.8449807763099,
      "name":"Anh Hòa Bakery & Coffee - Trần Đại Nghĩa",
      "octime":"   07:00 AM - 11:00 PM",
      "rate":6.6,
      "type":"Café/Dessert, ",
      "id":"SkmYW4zax"
   },
   "173":{
      "address":"117 Triệu Việt Vương",
      "district":"Quận Hai Bà Trưng",
      "image":"B1OKbEf6x_1.jpg",
      "lat":21.014014,
      "long":105.850466,
      "name":"Thọ Cafe - Triệu Việt Vương",
      "octime":"   09:00 AM - 11:00 PM",
      "rate":7.5,
      "type":"Café/Dessert",
      "id":"B1OKbEf6x"
   },
   "174":{
      "address":"64 Lương Văn Can, P. Hàng Trống",
      "district":"Quận Hoàn Kiếm",
      "image":"S1Dt-Vfpl_1.jpg",
      "lat":21.0316265,
      "long":105.850881,
      "name":"The Note Coffee - Lương Văn Can",
      "octime":"   07:00 AM - 11:00 PM",
      "rate":7.4,
      "type":"Café/Dessert",
      "id":"S1Dt-Vfpl"
   },
   "175":{
      "address":"6 Ấu Triệu",
      "district":"Quận Hoàn Kiếm",
      "image":"S1e_FZVM6g_1.jpg",
      "lat":21.029121,
      "long":105.849559,
      "name":"La Place - Cafe Cổ Kính",
      "octime":"Cả ngày  07:00 AM - 11:00 PM",
      "rate":7.2,
      "type":"Café/Dessert",
      "id":"S1e_FZVM6g"
   },
   "176":{
      "address":"22 Lý Quốc Sư",
      "district":"Quận Hoàn Kiếm",
      "image":"ryotbEf6e_1.jpg",
      "lat":21.030213,
      "long":105.849227,
      "name":"Joma Bakery Cafe - Lý Quốc Sư",
      "octime":"   08:00 AM - 09:00 PM",
      "rate":7.4,
      "type":"Café/Dessert, ",
      "id":"ryotbEf6e"
   },
   "177":{
      "address":"25 Hạ Hồi",
      "district":"Quận Hoàn Kiếm",
      "image":"SkTtZVfpg_1.jpg",
      "lat":21.0211866,
      "long":105.8468826,
      "name":"Le Petit Cafe - Hạ Hồi",
      "octime":"   08:30 AM - 10:30 PM",
      "rate":7.5,
      "type":"Café/Dessert",
      "id":"SkTtZVfpg"
   },
   "178":{
      "address":"56 Đào Tấn",
      "district":"Quận Ba Đình",
      "image":"Bkbc-4f6x_1.jpg",
      "lat":21.032821027042,
      "long":105.8079659566283,
      "name":"La ISLA - Juice, Tea & Coffee",
      "octime":"  07:00 AM - 11:00 PM",
      "rate":7.4,
      "type":"Café/Dessert",
      "id":"Bkbc-4f6x"
   },
   "179":{
      "address":"15 Thái Phiên",
      "district":"Quận Hai Bà Trưng",
      "image":"r1f9bEMal_1.jpg",
      "lat":21.010553,
      "long":105.8481963,
      "name":"Cafe De Vu - Thái Phiên",
      "octime":"  08:00 AM - 10:00 PM",
      "rate":7.8,
      "type":"Café/Dessert",
      "id":"r1f9bEMal"
   },
   "180":{
      "address":"1A Hồ Đắc Di",
      "district":"Quận Đống Đa",
      "image":"SJwq-4GTx_1.jpg",
      "lat":21.0113199858534,
      "long":105.830770432949,
      "name":"Delio Cafe - Hồ Đắc Di",
      "octime":"   07:00 AM - 10:00 PM",
      "rate":7.1,
      "type":"Café/Dessert",
      "id":"SJwq-4GTx"
   },
   "181":{
      "address":"515 Nguyễn Trãi",
      "district":"Quận Thanh Xuân",
      "image":"HyS5-Vzpx_1.jpg",
      "lat":20.9871807,
      "long":105.7974547,
      "name":"Archi House Coffee & Tea - Nguyễn Trãi",
      "octime":"  07:00 AM - 11:00 PM",
      "rate":7.5,
      "type":"Café/Dessert",
      "id":"HyS5-Vzpx"
   },
   "182":{
      "address":"7 Hoàng Cầu",
      "district":"Quận Đống Đa",
      "image":"HkF5Z4zpg_1.jpg",
      "lat":21.01984,
      "long":105.825424,
      "name":"Toast 'n Tea Cafe & Food - Hoàng Cầu",
      "octime":"   08:00 AM - 11:00 PM",
      "rate":7.1,
      "type":"Nhà hàng",
      "id":"HkF5Z4zpg"
   },
   "183":{
      "address":"1 Ngõ 97 Nguyễn Chí Thanh",
      "district":"Quận Đống Đa",
      "image":"SJj9WNfTe_1.jpg",
      "lat":21.018501,
      "long":105.807736,
      "name":"Rauta House Cafe - Nguyễn Chí Thanh",
      "octime":"   09:00 AM - 11:00 PM",
      "rate":7.4,
      "type":"Café/Dessert",
      "id":"SJj9WNfTe"
   },
   "184":{
      "address":"48 Nguyễn Bỉnh Khiêm",
      "district":"Quận Hai Bà Trưng",
      "image":"Hk-iWEG6l_1.jpg",
      "lat":21.015371,
      "long":105.848556,
      "name":"Bay Coffee & Tea - Nguyễn Bỉnh Khiêm",
      "octime":"   08:00 AM - 11:00 PM",
      "rate":7.1,
      "type":"Nhà hàng, ",
      "id":"Hk-iWEG6l"
   },
   "185":{
      "address":"5 Ngõ 20 Núi Trúc",
      "district":"Quận Ba Đình",
      "image":"Bkgj-4zTl_1.jpg",
      "lat":21.028434,
      "long":105.823918,
      "name":"Own Now Cafe - Núi Trúc",
      "octime":"  09:00 AM - 10:00 PM",
      "rate":7.1,
      "type":"Café/Dessert",
      "id":"Bkgj-4zTl"
   },
   "186":{
      "address":"111 Lương Thế Vinh",
      "district":"Quận Thanh Xuân",
      "image":"ByfsbNMTx_1.jpg",
      "lat":20.9899304,
      "long":105.7970898999999,
      "name":"Shin Coffee - Lương Thế Vinh",
      "octime":"  07:00 AM - 10:00 PM",
      "rate":7.1,
      "type":"Café/Dessert",
      "id":"ByfsbNMTx"
   },
   "187":{
      "address":"Big C Thăng Long, 222 Trần Duy Hưng",
      "district":"Quận Cầu Giấy",
      "image":"BJIibNGTe_1.jpg",
      "lat":21.0066476952276,
      "long":105.7927232980728,
      "name":"Snow Island Coffee - Big C Thăng Long",
      "octime":"  07:00 AM - 11:00 PM",
      "rate":7.2,
      "type":"Café/Dessert",
      "id":"BJIibNGTe"
   },
   "188":{
      "address":"144 D2 Giảng Võ",
      "district":"Quận Ba Đình",
      "image":"Sk5jWVz6e_1.jpg",
      "lat":21.025937,
      "long":105.821915,
      "name":"Lemon House Coffee - Giảng Võ",
      "octime":"  09:00 AM - 10:00 PM",
      "rate":6.8,
      "type":"Café/Dessert",
      "id":"Sk5jWVz6e"
   },
   "189":{
      "address":"34 Trưng Nhị",
      "district":"Quận Hà Đông",
      "image":"SJnjbNGal_1.jpg",
      "lat":20.970659,
      "long":105.778712,
      "name":"Bastet's Home Coffee - Hà Đông",
      "octime":"  08:00 AM - 11:00 PM",
      "rate":7.5,
      "type":"Café/Dessert",
      "id":"SJnjbNGal"
   },
   "190":{
      "address":"Tầng 2, 21 Tràng Tiền",
      "district":"Quận Hoàn Kiếm",
      "image":"BJJ2bVf6l_1.jpg",
      "lat":21.0243111,
      "long":105.856278,
      "name":"Swing Cafe & Restaurant - Tràng Tiền",
      "octime":"  07:00 AM - 11:00 PM",
      "rate":7.9,
      "type":"Nhà hàng, ",
      "id":"BJJ2bVf6l"
   },
   "191":{
      "address":"28 Ngõ A5 Đại Học Hà Nội",
      "district":"Quận Thanh Xuân",
      "image":"ryCiWEM6l_1.jpg",
      "lat":20.9896549483791,
      "long":105.7962262630462,
      "name":"90's Coffee - Đại Học Hà Nội",
      "octime":"  08:00 AM - 11:00 PM",
      "rate":7.9,
      "type":"Café/Dessert",
      "id":"ryCiWEM6l"
   },
   "192":{
      "address":"121 Ô Chợ Dừa",
      "district":"Quận Đống Đa",
      "image":"rkG3WEMpl_1.jpg",
      "lat":21.0197490188843,
      "long":105.8277750760316,
      "name":"Passio Coffee - Ô Chợ Dừa",
      "octime":"   06:30 AM - 11:00 PM",
      "rate":7.1,
      "type":"Café/Dessert",
      "id":"rkG3WEMpl"
   },
   "193":{
      "address":"13 Ngõ 19 Đặng Dung",
      "district":"Quận Ba Đình",
      "image":"S14n-Nzpe_1.jpg",
      "lat":21.0412815184118,
      "long":105.8413022815799,
      "name":"Tổ Chim Xanh - Bluebirds'Nest Book Cafe",
      "octime":"  08:00 AM - 10:00 PM",
      "rate":7.8,
      "type":"Café/Dessert",
      "id":"S14n-Nzpe"
   },
   "194":{
      "address":"26 Hàng Vôi",
      "district":"Quận Hoàn Kiếm",
      "image":"SyK3ZVf6l_1.jpg",
      "lat":21.030668,
      "long":105.856162,
      "name":"Hoa 10 Giờ - Floral & Book Cafe - Hàng Vôi",
      "octime":"   07:30 AM - 10:30 PM",
      "rate":7.9,
      "type":"Café/Dessert, ",
      "id":"SyK3ZVf6l"
   },
   "195":{
      "address":"166 Ngõ Xã Đàn 2, Xã Đàn",
      "district":"Quận Đống Đa",
      "image":"H1_3bVfTl_1.jpg",
      "lat":21.0130964630497,
      "long":105.8318298682899,
      "name":"Cine Cafe 2 - Cafe Phim - Xã Đàn",
      "octime":"  08:00 AM - 11:00 PM",
      "rate":7.9,
      "type":"Café/Dessert",
      "id":"H1_3bVfTl"
   },
   "196":{
      "address":"15 Phan Bội Châu",
      "district":"Quận Hoàn Kiếm",
      "image":"Bygd2ZNfae_1.jpg",
      "lat":21.0264554120944,
      "long":105.843638330698,
      "name":"Quỳnh - Mini Cafe",
      "octime":"   07:00 AM - 10:00 PM",
      "rate":7.8,
      "type":"Café/Dessert",
      "id":"Bygd2ZNfae"
   },
   "197":{
      "address":"47A Lý Quốc Sư, P. Hàng Trống",
      "district":"Quận Hoàn Kiếm",
      "image":"Hkin-4Max_1.jpg",
      "lat":21.029091,
      "long":105.849667,
      "name":"Ha Noi House Cafe",
      "octime":"   07:00 AM - 09:30 PM",
      "rate":7.1,
      "type":"Café/Dessert",
      "id":"Hkin-4Max"
   },
   "198":{
      "address":"36 Ngõ Huyện, P. Hàng Trống",
      "district":"Quận Hoàn Kiếm",
      "image":"H1ezTW4Mpx_1.jpg",
      "lat":21.0297297,
      "long":105.848558,
      "name":"Chat Noir Cafe",
      "octime":"   07:00 AM - 10:30 PM",
      "rate":6.9,
      "type":"Café/Dessert",
      "id":"H1ezTW4Mpx"
   },
   "199":{
      "address":"36 Ngõ Huyện",
      "district":"Quận Hoàn Kiếm",
      "image":"SJb6WEGpe_1.jpg",
      "lat":21.029347,
      "long":105.848314,
      "name":"L'espace Cafe",
      "octime":"   09:00 AM - 10:00 PM",
      "rate":7.2,
      "type":"Café/Dessert",
      "id":"SJb6WEGpe"
   },
   "200":{
      "address":"36 Ấu Triệu",
      "district":"Quận Hoàn Kiếm",
      "image":"r1f6-Efpe_1.jpg",
      "lat":21.028846,
      "long":105.848701,
      "name":"Oriberry Cafe - Ấu Triệu",
      "octime":"   07:00 AM - 10:30 PM",
      "rate":7.4,
      "type":"Café/Dessert",
      "id":"r1f6-Efpe"
   },
   "201":{
      "address":"4 Bảo Khánh",
      "district":"Quận Hoàn Kiếm",
      "image":"r1m6ZVzTg_1.jpg",
      "lat":21.0303644407392,
      "long":105.8508541435003,
      "name":"Bon Bon Cafe - Bảo Khánh",
      "octime":"   08:00 AM - 11:00 PM",
      "rate":6.3,
      "type":"Café/Dessert",
      "id":"r1m6ZVzTg"
   },
   "202":{
      "address":"4 Bảo Khánh",
      "district":"Quận Hoàn Kiếm",
      "image":"ByxtpbVfTe_1.jpg",
      "lat":21.0303644407392,
      "long":105.8508541435003,
      "name":"Bon Bon Cafe - Bảo Khánh",
      "octime":"   08:00 AM - 11:00 PM",
      "rate":6.3,
      "type":"Café/Dessert",
      "id":"ByxtpbVfTe"
   },
   "203":{
      "address":"39 Nguyễn Hữu Huân",
      "district":"Quận Hoàn Kiếm",
      "image":"B1tp-VG6g_1.jpg",
      "lat":21.0333013937173,
      "long":105.8544753086152,
      "name":"Song Ngọc Coffee",
      "octime":"  08:00 AM - 11:00 PM",
      "rate":9,
      "type":"Café/Dessert",
      "id":"B1tp-VG6g"
   },
   "204":{
      "address":"33 Bà Triệu",
      "district":"Quận Hoàn Kiếm",
      "image":"SysT-VMTl_1.jpg",
      "lat":21.023486,
      "long":105.851003,
      "name":"Don Quixote Restaurant & Cafe",
      "octime":"  08:00 AM - 11:00 PM",
      "rate":8.8,
      "type":"Quán ăn",
      "id":"SysT-VMTl"
   },
   "205":{
      "address":"3 Đường Ven Hồ, P. Thụy Khuê",
      "district":"Quận Tây Hồ",
      "image":"BJ3pZ4M6e_1.jpg",
      "lat":21.0432589,
      "long":105.82472,
      "name":"IGC Cafe",
      "octime":"   07:00 AM - 10:30 PM",
      "rate":7.2,
      "type":"Café/Dessert",
      "id":"BJ3pZ4M6e"
   },
   "206":{
      "address":"B11/120 Đường Ven Hồ, P. Thụy Khuê",
      "district":"Quận Tây Hồ",
      "image":"Bk1AbEz6x_1.jpg",
      "lat":21.044047,
      "long":105.821303,
      "name":"Locals Cafe",
      "octime":"   07:00 AM - 10:30 PM",
      "rate":7.5,
      "type":"Café/Dessert",
      "id":"Bk1AbEz6x"
   },
   "207":{
      "address":"17 Hàng Da",
      "district":"Quận Hoàn Kiếm",
      "image":"HkeAW4G6l_1.jpg",
      "lat":21.030584,
      "long":105.846781,
      "name":"Cafe Nghĩa",
      "octime":"  07:00 AM - 11:00 PM",
      "rate":7.8,
      "type":"Café/Dessert",
      "id":"HkeAW4G6l"
   },
   "208":{
      "address":"12/118 Nguyễn Khánh Toàn",
      "district":"Quận Cầu Giấy",
      "image":"Syz0b4G6g_1.jpg",
      "lat":21.038094,
      "long":105.801226,
      "name":"Monaco Cafe",
      "octime":"   07:00 AM - 10:30 PM",
      "rate":7.5,
      "type":"Café/Dessert",
      "id":"Syz0b4G6g"
   },
   "209":{
      "address":"36 Trường Chinh",
      "district":"Quận Đống Đa",
      "image":"BkX0Z4M6x_1.jpg",
      "lat":20.999786,
      "long":105.832528,
      "name":"Tigon Cafe",
      "octime":"   08:00 AM - 10:30 PM",
      "rate":7.1,
      "type":"Café/Dessert",
      "id":"BkX0Z4M6x"
   },
   "210":{
      "address":"161 Tô Hiệu",
      "district":"Quận Cầu Giấy",
      "image":"SkU0WNfpe_1.jpg",
      "lat":21.041589,
      "long":105.794563,
      "name":"New Style Cafe",
      "octime":"   07:00 AM - 10:30 PM",
      "rate":7.2,
      "type":"Café/Dessert",
      "id":"SkU0WNfpe"
   },
   "211":{
      "address":"8 Thanh Niên",
      "district":"Quận Tây Hồ",
      "image":"Skw0bNfTg_1.jpg",
      "lat":21.05045,
      "long":105.839839,
      "name":"Cổ Ngư Cafe",
      "octime":"   08:00 AM - 11:00 PM",
      "rate":7.1,
      "type":"Café/Dessert",
      "id":"Skw0bNfTg"
   },
   "212":{
      "address":"16 Nguyễn Trung Trực, P. Nguyễn Trung Trực",
      "district":"Quận Ba Đình",
      "image":"By90WEzpe_1.jpg",
      "lat":21.041098,
      "long":105.848245,
      "name":"Agni Cafe Bar",
      "octime":"   09:00 AM - 11:30 PM",
      "rate":6.5,
      "type":"Café/Dessert",
      "id":"By90WEzpe"
   },
   "213":{
      "address":"Tòa Nhà CT1, Ngô Thì Nhậm",
      "district":"Quận Hà Đông",
      "image":"Sy6CW4zal_1.jpg",
      "lat":20.969334,
      "long":105.768219,
      "name":"Unik Cafe",
      "octime":"  08:00 AM - 11:00 PM",
      "rate":7.7,
      "type":"Café/Dessert",
      "id":"Sy6CW4zal"
   },
   "214":{
      "address":"162 Nguyễn An Ninh",
      "district":"Quận Hai Bà Trưng",
      "image":"HyxJ1fEMpl_1.jpg",
      "lat":20.993888,
      "long":105.842799,
      "name":"The One Coffee",
      "octime":"  08:00 AM - 12:00 AM",
      "rate":7.8,
      "type":"Café/Dessert, ",
      "id":"HyxJ1fEMpl"
   },
   "215":{
      "address":"89 Trân Xuân Soạn",
      "district":"Quận Hai Bà Trưng",
      "image":"SJy1z4M6g_1.jpg",
      "lat":21.016748,
      "long":105.851592,
      "name":"Hôm Cafe",
      "octime":"  07:30 AM - 11:00 PM",
      "rate":7.6,
      "type":"Café/Dessert",
      "id":"SJy1z4M6g"
   },
   "216":{
      "address":"Lô 114 TT3, Mỹ Đình Sông Đà",
      "district":"Quận Nam Từ Liêm",
      "image":"SkMO1MNf6e_1.jpg",
      "lat":21.016473,
      "long":105.776791,
      "name":"Eurosian Coffee",
      "octime":"  07:00 AM - 01:00 AM",
      "rate":7.8,
      "type":"Café/Dessert",
      "id":"SkMO1MNf6e"
   },
   "217":{
      "address":"235 Giải Phóng",
      "district":"Quận Hai Bà Trưng",
      "image":"rkb_1MEfpl_1.jpg",
      "lat":20.9994277759745,
      "long":105.8416020306884,
      "name":"Lạ coffee",
      "octime":"  08:00 AM - 10:30 PM",
      "rate":7.4,
      "type":"Café/Dessert",
      "id":"rkb_1MEfpl"
   },
   "218":{
      "address":"3 Đường Ven Hồ, P. Thụy Khuê",
      "district":"Quận Tây Hồ",
      "image":"H1dJGEf6e_1.jpg",
      "lat":21.0432589,
      "long":105.82472,
      "name":"IGC Cafe",
      "octime":"   07:00 AM - 10:30 PM",
      "rate":7.2,
      "type":"Café/Dessert",
      "id":"H1dJGEf6e"
   },
   "219":{
      "address":"B11/120 Đường Ven Hồ, P. Thụy Khuê",
      "district":"Quận Tây Hồ",
      "image":"H1x_yMNMpg_1.jpg",
      "lat":21.044047,
      "long":105.821303,
      "name":"Locals Cafe",
      "octime":"   07:00 AM - 10:30 PM",
      "rate":7.5,
      "type":"Café/Dessert",
      "id":"H1x_yMNMpg"
   },
   "220":{
      "address":"108 Ngõ 48 Phố Tạ Quang Bửu",
      "district":"Quận Hai Bà Trưng",
      "image":"HygkgfEfae_1.jpg",
      "lat":21.001088,
      "long":105.84907,
      "name":"Miix Coffee 2",
      "octime":"  09:00 AM - 09:00 PM",
      "rate":6,
      "type":"Ăn vặt/vỉa hè, ",
      "id":"HygkgfEfae"
   },
   "221":{
      "address":"1 Nguyễn Huy Tưởng",
      "district":"Quận Thanh Xuân",
      "image":"Byygz4f6l_1.jpg",
      "lat":20.999793,
      "long":105.807427,
      "name":"Ami Cafe",
      "octime":"   07:00 AM - 10:30 PM",
      "rate":8,
      "type":"Café/Dessert",
      "id":"Byygz4f6l"
   },
   "222":{
      "address":"10 Ngõ 1 Đại Học Hà Nội",
      "district":"Quận Thanh Xuân",
      "image":"BJgxfEM6g_1.jpg",
      "lat":20.987645,
      "long":105.796581,
      "name":"Supremacy Coffee",
      "octime":"  08:30 AM - 11:00 PM",
      "rate":8,
      "type":"Café/Dessert",
      "id":"BJgxfEM6g"
   },
   "223":{
      "address":"115 - 116 B1 Trần Huy Liệu",
      "district":"Quận Ba Đình",
      "image":"By-gfEzTg_1.jpg",
      "lat":21.0299526065113,
      "long":105.8279889822006,
      "name":"Thùy Trang Coffee",
      "octime":"  06:30 AM - 10:30 PM",
      "rate":7.8,
      "type":"Café/Dessert",
      "id":"By-gfEzTg"
   },
   "224":{
      "address":"8 Chân Cầm",
      "district":"Quận Hoàn Kiếm",
      "image":"ryl_xfNzTx_1.jpg",
      "lat":21.0303363,
      "long":105.8484475999999,
      "name":"Loading T Cafe",
      "octime":"  09:00 AM - 11:00 PM",
      "rate":8.4,
      "type":"Café/Dessert",
      "id":"ryl_xfNzTx"
   },
   "225":{
      "address":"Lô 114 TT3, Mỹ Đình Sông Đà",
      "district":"Quận Nam Từ Liêm",
      "image":"Hk_efEGag_1.jpg",
      "lat":21.016473,
      "long":105.776791,
      "name":"Eurosian Coffee",
      "octime":"  07:00 AM - 01:00 AM",
      "rate":7.8,
      "type":"Café/Dessert",
      "id":"Hk_efEGag"
   },
   "226":{
      "address":"235 Giải Phóng",
      "district":"Quận Hai Bà Trưng",
      "image":"BJWdezVz6e_1.jpg",
      "lat":20.9994277759745,
      "long":105.8416020306884,
      "name":"Lạ coffee",
      "octime":"  08:00 AM - 10:30 PM",
      "rate":7.4,
      "type":"Café/Dessert",
      "id":"BJWdezVz6e"
   },
   "227":{
      "address":"89 Trân Xuân Soạn",
      "district":"Quận Hai Bà Trưng",
      "image":"rJjlzNzae_1.jpg",
      "lat":21.016748,
      "long":105.851592,
      "name":"Hôm Cafe",
      "octime":"  07:30 AM - 11:00 PM",
      "rate":7.6,
      "type":"Café/Dessert",
      "id":"rJjlzNzae"
   },
   "228":{
      "address":"58B Nguyễn Hữu Huân",
      "district":"Quận Hoàn Kiếm",
      "image":"Hyx-Wz4Mpg_1.jpg",
      "lat":21.0333010653398,
      "long":105.8544152115094,
      "name":"Phin Coffee",
      "octime":"  07:30 AM - 11:30 PM",
      "rate":7.9,
      "type":"Café/Dessert",
      "id":"Hyx-Wz4Mpg"
   },
   "229":{
      "address":"19 Vũ Phạm Hàm",
      "district":"Quận Cầu Giấy",
      "image":"rJZ-ZMVzTx_1.jpg",
      "lat":21.0194691996344,
      "long":105.8002462441802,
      "name":"Xưởng Cafe",
      "octime":"  07:00 AM - 11:00 PM",
      "rate":7.4,
      "type":"Café/Dessert",
      "id":"rJZ-ZMVzTx"
   },
   "230":{
      "address":"10 Tạ Quang Bửu, P. Bách Khoa",
      "district":"Quận Hai Bà Trưng",
      "image":"SyWWzNz6e_1.jpg",
      "lat":21.0077904293419,
      "long":105.8475942537188,
      "name":"Single Corner Coffee",
      "octime":"  9:00 AM - 9:00 PM",
      "rate":6.1,
      "type":"Café/Dessert",
      "id":"SyWWzNz6e"
   },
   "231":{
      "address":"10 Đoàn Trần Nghiệp",
      "district":"Quận Hai Bà Trưng",
      "image":"B1SWzEfpe_1.jpg",
      "lat":21.011874,
      "long":105.850746,
      "name":"Vintage 1976 Cafe",
      "octime":"  08:00 AM - 10:00 PM",
      "rate":7.6,
      "type":"Café/Dessert",
      "id":"B1SWzEfpe"
   },
   "232":{
      "address":"115 - 116 B1 Trần Huy Liệu",
      "district":"Quận Ba Đình",
      "image":"S1etbMEMal_1.jpg",
      "lat":21.0299526065113,
      "long":105.8279889822006,
      "name":"Thùy Trang Coffee",
      "octime":"  06:30 AM - 10:30 PM",
      "rate":7.8,
      "type":"Café/Dessert",
      "id":"S1etbMEMal"
   },
   "233":{
      "address":"23 - 25 Đặng Tiến Đông, P. Trung Liệt",
      "district":"Quận Đống Đa",
      "image":"HkYZf4Gal_1.jpg",
      "lat":21.011051,
      "long":105.824704,
      "name":"Oriberry Coffee",
      "octime":"  09:00 AM - 09:00 PM",
      "rate":8.7,
      "type":"Café/Dessert",
      "id":"HkYZf4Gal"
   },
   "234":{
      "address":"81 Quán Thánh",
      "district":"Quận Ba Đình",
      "image":"BkqZf4fTx_1.jpg",
      "lat":21.0426125462631,
      "long":105.8409722149372,
      "name":"81QT Restaurant & Coffee",
      "octime":"  09:00 AM - 11:00 PM",
      "rate":7.3,
      "type":"Quán ăn",
      "id":"BkqZf4fTx"
   },
   "235":{
      "address":"23 Lương Văn Can (Mới)",
      "district":"Quận Hà Đông",
      "image":"Bys-zVG6x_1.jpg",
      "lat":20.9666392,
      "long":105.7773158,
      "name":"Tree Coffee House",
      "octime":"  09:00 AM - 10:00 PM",
      "rate":7.5,
      "type":"Café/Dessert",
      "id":"Bys-zVG6x"
   },
   "236":{
      "address":"2 Trần Điền",
      "district":"Quận Thanh Xuân",
      "image":"B1QfzNGpe_1.jpg",
      "lat":20.991319,
      "long":105.832529,
      "name":"Alone Coffee",
      "octime":"  09:00 AM - 10:00 PM",
      "rate":6.7,
      "type":"Café/Dessert",
      "id":"B1QfzNGpe"
   },
   "237":{
      "address":"Tầng 3, 57B Đinh Tiên Hoàng",
      "district":"Quận Hoàn Kiếm",
      "image":"Bk8MGEM6x_1.jpg",
      "lat":21.0317354399487,
      "long":105.8531082049012,
      "name":"Civet Coffee",
      "octime":"  09:00 AM - 10:30 PM",
      "rate":8.4,
      "type":"Café/Dessert",
      "id":"Bk8MGEM6x"
   },
   "238":{
      "address":"14 Ngõ 34 Hoàng Cầu",
      "district":"Quận Đống Đa",
      "image":"HJSGfEGax_1.jpg",
      "lat":21.019371,
      "long":105.824156,
      "name":"The Fuel Coffee",
      "octime":"  07:00 AM - 11:00 PM",
      "rate":7.6,
      "type":"Café/Dessert",
      "id":"HJSGfEGax"
   },
   "239":{
      "address":"111 A7 Ngõ 1A Tôn Thất Tùng",
      "district":"Quận Đống Đa",
      "image":"HyOMfVzpe_1.jpg",
      "lat":21.0028755,
      "long":105.829833,
      "name":"In & Out Cafe",
      "octime":"  09:00 AM - 11:00 PM",
      "rate":7.5,
      "type":"Café/Dessert",
      "id":"HyOMfVzpe"
   },
   "240":{
      "address":"162 Nguyễn An Ninh",
      "district":"Quận Hai Bà Trưng",
      "image":"ryqGGVfTx_1.jpg",
      "lat":20.993888,
      "long":105.842799,
      "name":"The One Coffee",
      "octime":"  08:00 AM - 12:00 AM",
      "rate":7.8,
      "type":"Café/Dessert, ",
      "id":"ryqGGVfTx"
   },
   "241":{
      "address":"10 Ngõ 1 Đại Học Hà Nội",
      "district":"Quận Thanh Xuân",
      "image":"HkjMzEMax_1.jpg",
      "lat":20.987645,
      "long":105.796581,
      "name":"Supremacy Coffee",
      "octime":"  08:30 AM - 11:00 PM",
      "rate":8,
      "type":"Café/Dessert",
      "id":"HkjMzEMax"
   },
   "242":{
      "address":"104 B1, TT. Nghĩa Tân",
      "district":"Quận Cầu Giấy",
      "image":"rJTzMVM6e_1.jpg",
      "lat":21.045266,
      "long":105.7958579999999,
      "name":"Take Coffee",
      "octime":"  07:00 AM - 11:00 PM",
      "rate":7.6,
      "type":"Café/Dessert",
      "id":"rJTzMVM6e"
   },
   "243":{
      "address":"Ninh Hiệp",
      "district":"Gia Lâm",
      "image":"rkx7zNzag_1.jpg",
      "lat":21.0840305254136,
      "long":105.9413012489676,
      "name":"Krabi Coffee",
      "octime":"  08:00 AM - 11:00 PM",
      "rate":9.7,
      "type":"Café/Dessert",
      "id":"rkx7zNzag"
   },
   "244":{
      "address":"A20-BT6 Ven Hồ Văn Quán",
      "district":"Quận Hà Đông",
      "image":"Syb7MVzpx_1.jpg",
      "lat":20.9781785843539,
      "long":105.7896930416641,
      "name":"Nakatu Cafe",
      "octime":"  07:30 AM - 10:30 PM",
      "rate":7.6,
      "type":"Café/Dessert",
      "id":"Syb7MVzpx"
   },
   "245":{
      "address":"Tầng 2, 114 Nguyễn Chí Thanh",
      "district":"Quận Ba Đình",
      "image":"ByzmG4M6e_1.jpg",
      "lat":21.022022,
      "long":105.80957,
      "name":"Cita Cafe",
      "octime":"  09:00 AM - 10:00 PM",
      "rate":7.6,
      "type":"Café/Dessert",
      "id":"ByzmG4M6e"
   },
   "246":{
      "address":"31 Hoàng Cầu",
      "district":"Quận Đống Đa",
      "image":"SJUmMVMpg_1.jpg",
      "lat":21.0191290323531,
      "long":105.8251153305173,
      "name":"Vamos Cafe",
      "octime":"  07:00 AM - 11:00 PM",
      "rate":7.6,
      "type":"Café/Dessert",
      "id":"SJUmMVMpg"
   },
   "247":{
      "address":"9A Hàm Long",
      "district":"Quận Hoàn Kiếm",
      "image":"HyO7fEfal_1.jpg",
      "lat":21.018787,
      "long":105.854146,
      "name":"CAFE Bingsuda",
      "octime":"  09:00 AM - 11:00 PM",
      "rate":7.7,
      "type":"Café/Dessert",
      "id":"HyO7fEfal"
   },
   "248":{
      "address":"2 Trần Điền",
      "district":"Quận Thanh Xuân",
      "image":"rkg57GNzTx_1.jpg",
      "lat":20.991319,
      "long":105.832529,
      "name":"Alone Coffee",
      "octime":"  09:00 AM - 10:00 PM",
      "rate":6.7,
      "type":"Café/Dessert",
      "id":"rkg57GNzTx"
   },
   "249":{
      "address":"58 Nguyễn Hữu Huân",
      "district":"Quận Hoàn Kiếm",
      "image":"HkcQz4G6e_1.jpg",
      "lat":21.033321,
      "long":105.854422,
      "name":"Drew Coffee",
      "octime":"  08:00 AM - 10:30 PM",
      "rate":8.5,
      "type":"Café/Dessert",
      "id":"HkcQz4G6e"
   },
   "250":{
      "address":"41 Yên Lãng",
      "district":"Quận Đống Đa",
      "image":"H1RQM4z6e_1.jpg",
      "lat":21.010306,
      "long":105.815674,
      "name":"Adapter Workspace & Coffee",
      "octime":"  10:00 AM - 10:00 PM",
      "rate":8,
      "type":"Café/Dessert",
      "id":"H1RQM4z6e"
   },
   "251":{
      "address":"Ngõ 1 ĐH Hà Nội",
      "district":"Quận Thanh Xuân",
      "image":"Bk14z4Gal_1.jpg",
      "lat":20.988116,
      "long":105.796722,
      "name":"GaLy Coffee - ĐH Hà Nội",
      "octime":"  08:00 AM - 11:30 PM",
      "rate":7.3,
      "type":"Café/Dessert",
      "id":"Bk14z4Gal"
   },
   "252":{
      "address":"19 Đường Láng",
      "district":"Quận Đống Đa",
      "image":"HkYEMVM6e_1.jpg",
      "lat":21.0032523054218,
      "long":105.819424688816,
      "name":"Gemini Coffee - Đường Láng",
      "octime":"  07:30 AM - 11:00 PM",
      "rate":6.9,
      "type":"Café/Dessert",
      "id":"HkYEMVM6e"
   },
   "253":{
      "address":"19 B4 Phạm Ngọc Thạch",
      "district":"Quận Đống Đa",
      "image":"Sy44MVMTl_1.jpg",
      "lat":21.0102971523184,
      "long":105.8362884074449,
      "name":"Goky - Tea Coffee & Juice",
      "octime":"  08:00 AM - 11:00 PM",
      "rate":6.1,
      "type":"Café/Dessert",
      "id":"Sy44MVMTl"
   },
   "254":{
      "address":"48 Hàng Bè",
      "district":"Quận Hoàn Kiếm",
      "image":"B18VMVzTe_1.jpg",
      "lat":21.032676,
      "long":105.853829,
      "name":"Green Tangerine Cafe - Restaurant",
      "octime":"   11:00 AM - 11:00 PM",
      "rate":8,
      "type":"Sang trọng, ",
      "id":"B18VMVzTe"
   },
   "255":{
      "address":"8C Tôn Thất Thuyết, P. Dịch Vọng Hậu",
      "district":"Quận Cầu Giấy",
      "image":"B1D4GEGTx_1.jpg",
      "lat":21.027776,
      "long":105.785517,
      "name":"Miriam's Cafe",
      "octime":"   07:00 AM - 10:30 PM",
      "rate":7.8,
      "type":"Café/Dessert",
      "id":"B1D4GEGTx"
   },
   "256":{
      "address":"Ngã 4 Nhổn, Đường 32, Nguyên Xá",
      "district":"Quận Bắc Từ Liêm",
      "image":"ByqVMVG6x_1.jpg",
      "lat":21.044012,
      "long":105.754588,
      "name":"Royal Cafe - Nhổn",
      "octime":"   07:00 AM - 10:00 PM",
      "rate":6.6,
      "type":"Café/Dessert",
      "id":"ByqVMVG6x"
   },
   "257":{
      "address":"Tầng 2 – 41 Hàng Bài",
      "district":"Quận Hoàn Kiếm",
      "image":"S1kHG4Gpx_1.jpg",
      "lat":21.021831,
      "long":105.852349,
      "name":"Chuồn Chuồn Phố Cafe",
      "octime":"   08:00 AM - 10:30 PM",
      "rate":7.4,
      "type":"Café/Dessert",
      "id":"S1kHG4Gpx"
   },
   "258":{
      "address":"CMC Tower, Số 1 Ngõ 11 Duy Tân, P. Dịch Vọng Hậu",
      "district":"Quận Cầu Giấy",
      "image":"HJRVzVGpx_1.jpg",
      "lat":21.030747,
      "long":105.784092,
      "name":"Time Restaurant and Coffee",
      "octime":"   06:30 AM - 10:30 PM",
      "rate":7.1,
      "type":"Nhà hàng, ",
      "id":"HJRVzVGpx"
   },
   "259":{
      "address":"Tầng 1, Tầng 8 Keangnam Landmark, 72 Phạm Hùng",
      "district":"Quận Cầu Giấy",
      "image":"SJeHzVGpe_1.jpg",
      "lat":21.035602,
      "long":105.780619,
      "name":"Vpresso Cafe - Keangnam Landmark",
      "octime":"   08:00 AM - 10:30 PM",
      "rate":7.5,
      "type":"Café/Dessert",
      "id":"SJeHzVGpe"
   },
   "260":{
      "address":"4 Ngách 78 Ngõ 68 Cầu Giấy",
      "district":"Quận Cầu Giấy",
      "image":"rJMrGNGag_1.jpg",
      "lat":21.032246,
      "long":105.801478,
      "name":"Cafe Cuối Ngõ - Cầu Giấy",
      "octime":"  09:00 AM - 11:00 PM",
      "rate":7.8,
      "type":"Café/Dessert",
      "id":"rJMrGNGag"
   },
   "261":{
      "address":"Tầng 2 – 41 Hàng Bài",
      "district":"Quận Hoàn Kiếm",
      "image":"r1vSG4GTx_1.jpg",
      "lat":21.021831,
      "long":105.852349,
      "name":"Chuồn Chuồn Phố Cafe",
      "octime":"   08:00 AM - 10:30 PM",
      "rate":7.4,
      "type":"Café/Dessert",
      "id":"r1vSG4GTx"
   },
   "262":{
      "address":"1 Văn Miếu",
      "district":"Quận Đống Đa",
      "image":"HJxDSGVGTg_1.jpg",
      "lat":21.02923,
      "long":105.836336,
      "name":"Chat And Date Cafe",
      "octime":"   08:00 AM - 10:00 PM",
      "rate":6.7,
      "type":"Café/Dessert",
      "id":"HJxDSGVGTg"
   },
   "263":{
      "address":"155 Chùa Láng",
      "district":"Quận Đống Đa",
      "image":"SycBzEzpe_1.jpg",
      "lat":21.0234191801537,
      "long":105.8038091362457,
      "name":"I Go Coffee",
      "octime":"  07:00 AM - 10:00 PM",
      "rate":7.1,
      "type":"Café/Dessert",
      "id":"SycBzEzpe"
   },
   "264":{
      "address":"16 Ngõ 204 Trần Duy Hưng",
      "district":"Quận Cầu Giấy",
      "image":"S1jBz4zax_1.jpg",
      "lat":21.009176,
      "long":105.7968880999999,
      "name":"EOEO Cafe - Cà Phê Mèo",
      "octime":"  07:30 AM - 10:30 PM",
      "rate":8.1,
      "type":"Café/Dessert",
      "id":"S1jBz4zax"
   },
   "265":{
      "address":"63 Vũ Trọng Phụng",
      "district":"Quận Thanh Xuân",
      "image":"ryCHGNGTe_1.jpg",
      "lat":20.9993419400882,
      "long":105.8083049207925,
      "name":"Chạm Coffee - Vũ Trọng Phụng",
      "octime":"  08:00 AM - 10:30 PM",
      "rate":7.8,
      "type":"Café/Dessert",
      "id":"ryCHGNGTe"
   },
   "266":{
      "address":"46 Thanh Niên",
      "district":"Quận Ba Đình",
      "image":"HJlUGEMpg_1.jpg",
      "lat":21.050405246805,
      "long":105.839230120182,
      "name":"Tearanium Cafe - Thanh Niên",
      "octime":"  08:30 AM - 11:00 PM",
      "rate":7.4,
      "type":"Café/Dessert",
      "id":"HJlUGEMpg"
   },
   "267":{
      "address":"6 Tô Tịch",
      "district":"Quận Hoàn Kiếm",
      "image":"HkmIz4zTx_1.jpg",
      "lat":21.032815,
      "long":105.850047,
      "name":"Workshop Coffee - Tô Tịch",
      "octime":"  08:00 AM - 11:00 PM",
      "rate":7.4,
      "type":"Café/Dessert",
      "id":"HkmIz4zTx"
   },
   "268":{
      "address":"7 Hàng Thùng",
      "district":"Quận Hoàn Kiếm",
      "image":"BJwIfEfpl_1.jpg",
      "lat":21.032328,
      "long":105.855265,
      "name":"Nhạc Cafe - Hàng Thùng",
      "octime":"  07:00 AM - 11:00 PM",
      "rate":8,
      "type":"Café/Dessert",
      "id":"BJwIfEfpl"
   },
   "269":{
      "address":"5 Nguyễn Quang Bích",
      "district":"Quận Hoàn Kiếm",
      "image":"Bk8UGVM6e_1.jpg",
      "lat":21.0324235948065,
      "long":105.8455131947994,
      "name":"Tranquil Books & Coffee - Nguyễn Quang Bích",
      "octime":"  08:00 AM - 10:30 PM",
      "rate":7.8,
      "type":"Café/Dessert",
      "id":"Bk8UGVM6e"
   },
   "270":{
      "address":"Liền Kề 9, Khu Skylight, Ngõ Hoà Bình 6 Minh Khai",
      "district":"Quận Hai Bà Trưng",
      "image":"BkYUfVfpl_1.jpg",
      "lat":20.9960022944206,
      "long":105.8548296343933,
      "name":"Paleta Cafe - Minh Khai",
      "octime":"  08:00 AM - 10:30 PM",
      "rate":8,
      "type":"Café/Dessert",
      "id":"BkYUfVfpl"
   },
   "271":{
      "address":"216 Bà Triệu, P. Lê Đại Hành",
      "district":"Quận Hai Bà Trưng",
      "image":"rkxvGVG6l_1.jpg",
      "lat":21.014955,
      "long":105.8491819999999,
      "name":"21 Six Cafe - Bà Triệu",
      "octime":"  08:00 AM - 10:00 PM",
      "rate":7.2,
      "type":"Café/Dessert",
      "id":"rkxvGVG6l"
   },
   "272":{
      "address":"Tầng 1 Hanoi Creative City, 1 Lương Yên",
      "district":"Quận Hai Bà Trưng",
      "image":"rklgPzNGpg_1.jpg",
      "lat":21.01229,
      "long":105.86323,
      "name":"BOO Cafe - Hanoi Creative City",
      "octime":"  09:00 AM - 10:30 PM",
      "rate":7,
      "type":"Café/Dessert",
      "id":"rklgPzNGpg"
   },
   "273":{
      "address":"Lô 8 Toà B, Cổng 3 Mandarin Garden, Hoàng Minh Giám",
      "district":"Quận Cầu Giấy",
      "image":"HJeGvfVM6g_1.jpg",
      "lat":21.005916,
      "long":105.799106,
      "name":"10+ Coffee & Fruits",
      "octime":"  06:30 AM - 10:30 PM",
      "rate":7.6,
      "type":"Café/Dessert",
      "id":"HJeGvfVM6g"
   },
   "274":{
      "address":"6 Ngõ 1 ĐH Hà Nội",
      "district":"Quận Nam Từ Liêm",
      "image":"B1fvfVMae_1.jpg",
      "lat":20.9875488749656,
      "long":105.7967559993267,
      "name":"Green House - Coffee & Fastfood",
      "octime":"  08:00 AM - 10:00 PM",
      "rate":7,
      "type":"Nhà hàng",
      "id":"B1fvfVMae"
   },
   "275":{
      "address":"129 Trung Liệt",
      "district":"Quận Đống Đa",
      "image":"ByDvf4zal_1.jpg",
      "lat":21.010534,
      "long":105.8197549999999,
      "name":"StarMovie Café - Trung Liệt",
      "octime":"  08:00 AM - 11:00 PM",
      "rate":7.8,
      "type":"Café/Dessert",
      "id":"ByDvf4zal"
   },
   "276":{
      "address":"239 Khương Trung",
      "district":"Quận Thanh Xuân",
      "image":"rJdPGNGTe_1.jpg",
      "lat":20.9968482,
      "long":105.8175868,
      "name":"Up Coffee - Drinks & Dessert",
      "octime":"   08:00 AM - 11:00 PM",
      "rate":7.4,
      "type":"Café/Dessert",
      "id":"rJdPGNGTe"
   },
   "277":{
      "address":"83 Nguyễn Khang",
      "district":"Quận Cầu Giấy",
      "image":"r1cwfEG6g_1.jpg",
      "lat":21.018045,
      "long":105.802122,
      "name":"Domino Coffee - Nguyễn Khang",
      "octime":"  08:00 AM - 11:00 PM",
      "rate":6.7,
      "type":"Café/Dessert",
      "id":"r1cwfEG6g"
   },
   "278":{
      "address":"41 Ngõ 41 Thái Hà",
      "district":"Quận Đống Đa",
      "image":"H1eOzEzag_1.jpg",
      "lat":21.0152501,
      "long":105.8155362,
      "name":"Cafe Nhà 41 - Thái Hà",
      "octime":"   08:00 AM - 11:00 PM",
      "rate":7.5,
      "type":"Café/Dessert",
      "id":"H1eOzEzag"
   },
   "279":{
      "address":"7 Trưng Trắc",
      "district":"Quận Hà Đông",
      "image":"S1CwzEfTl_1.jpg",
      "lat":20.971046,
      "long":105.779058,
      "name":"Sơn Cafe - Hà Đông",
      "octime":"  08:00 AM - 11:00 PM",
      "rate":7.4,
      "type":"Café/Dessert",
      "id":"S1CwzEfTl"
   },
   "280":{
      "address":"83 Tô Vĩnh Diện",
      "district":"Quận Thanh Xuân",
      "image":"HkJ_MEfTx_1.jpg",
      "lat":20.999625,
      "long":105.820989,
      "name":"Now Cafe - Tô Vĩnh Diện",
      "octime":"  07:00 AM - 12:00 AM",
      "rate":7.8,
      "type":"Café/Dessert",
      "id":"HkJ_MEfTx"
   },
   "281":{
      "address":"32 Trần Đăng Ninh",
      "district":"Quận Cầu Giấy",
      "image":"S1zOzVGpe_1.jpg",
      "lat":21.0361339,
      "long":105.793932,
      "name":"Delio Coffee - Trần Đăng Ninh",
      "octime":"  07:00 AM - 11:00 PM",
      "rate":7.2,
      "type":"Café/Dessert",
      "id":"S1zOzVGpe"
   },
   "282":{
      "address":"112 Cầu Vồng",
      "district":"Quận Bắc Từ Liêm",
      "image":"B1V_f4fpe_1.jpg",
      "lat":21.080463,
      "long":105.773355,
      "name":"Tom Coffee - Cầu Vồng",
      "octime":"  09:00 AM - 10:30 PM",
      "rate":7.5,
      "type":"Café/Dessert",
      "id":"B1V_f4fpe"
   },
   "283":{
      "address":"14 Ngõ 56 Lê Văn Hiến",
      "district":"Quận Bắc Từ Liêm",
      "image":"rJB_MEMTe_1.jpg",
      "lat":21.074129,
      "long":105.773738,
      "name":"The Heart Cafe",
      "octime":"  08:00 AM - 10:00 PM",
      "rate":8.1,
      "type":"Café/Dessert",
      "id":"rJB_MEMTe"
   },
   "284":{
      "address":"16 Ngõ 204 Trần Duy Hưng",
      "district":"Quận Cầu Giấy",
      "image":"rJwuz4f6x_1.jpg",
      "lat":21.009176,
      "long":105.7968880999999,
      "name":"EOEO Cafe - Cà Phê Mèo",
      "octime":"  07:30 AM - 10:30 PM",
      "rate":8.1,
      "type":"Café/Dessert",
      "id":"rJwuz4f6x"
   },
   "285":{
      "address":"2/213 Trần Đại Nghĩa",
      "district":"Quận Hai Bà Trưng",
      "image":"Syh_MEzpl_1.jpg",
      "lat":20.9972763819831,
      "long":105.8458102494478,
      "name":"Neu's Style Coffee",
      "octime":"  07:00 AM - 10:30 PM",
      "rate":6.7,
      "type":"Café/Dessert",
      "id":"Syh_MEzpl"
   },
   "286":{
      "address":"Lô 8 Toà B, Cổng 3 Mandarin Garden, Hoàng Minh Giám",
      "district":"Quận Cầu Giấy",
      "image":"Hyl2_fNGTe_1.jpg",
      "lat":21.005916,
      "long":105.799106,
      "name":"10+ Coffee & Fruits",
      "octime":"  06:30 AM - 10:30 PM",
      "rate":7.6,
      "type":"Café/Dessert",
      "id":"Hyl2_fNGTe"
   },
   "287":{
      "address":"238B Ngõ 1 Đại Học Hà Nội",
      "district":"Quận Thanh Xuân",
      "image":"S1adMEMTl_1.jpg",
      "lat":20.9876378074045,
      "long":105.7969531531646,
      "name":"St. Corner Coffee & Food",
      "octime":"  07:30 AM - 11:00 PM",
      "rate":6.9,
      "type":"Café/Dessert",
      "id":"S1adMEMTl"
   },
   "288":{
      "address":"16 Ngõ 204 Trần Duy Hưng",
      "district":"Quận Cầu Giấy",
      "image":"BJJKzNMTe_1.jpg",
      "lat":21.009176,
      "long":105.7968880999999,
      "name":"EOEO Cafe - Cà Phê Mèo",
      "octime":"  07:30 AM - 10:30 PM",
      "rate":8.1,
      "type":"Café/Dessert",
      "id":"BJJKzNMTe"
   },
   "289":{
      "address":"50 Tây Sơn",
      "district":"Quận Đống Đa",
      "image":"H14YzEGpx_1.jpg",
      "lat":21.0133481050474,
      "long":105.8267015218734,
      "name":"Espeed Coffee - Tây Sơn",
      "octime":"  08:00 AM - 11:00 PM",
      "rate":7.9,
      "type":"Café/Dessert",
      "id":"H14YzEGpx"
   },
   "290":{
      "address":"Ngõ 6 Lê Thánh Tông",
      "district":"Quận Hoàn Kiếm",
      "image":"BJItM4MTe_1.jpg",
      "lat":21.021948,
      "long":105.857236,
      "name":"Green Oasis - Coffee & Workshop",
      "octime":"  08:00 AM - 10:00 PM",
      "rate":7.7,
      "type":"Café/Dessert",
      "id":"BJItM4MTe"
   },
   "291":{
      "address":"112 Cầu Vồng",
      "district":"Quận Bắc Từ Liêm",
      "image":"H1-8Kz4f6g_1.jpg",
      "lat":21.080463,
      "long":105.773355,
      "name":"Tom Coffee - Cầu Vồng",
      "octime":"  09:00 AM - 10:30 PM",
      "rate":7.5,
      "type":"Café/Dessert",
      "id":"H1-8Kz4f6g"
   },
   "292":{
      "address":"24A Hàng Bún",
      "district":"Quận Ba Đình",
      "image":"Bye8YzEGTl_1.jpg",
      "lat":21.042734,
      "long":105.845325,
      "name":"Lake Coffee - Hàng Bún",
      "octime":"  08:00 AM - 11:00 PM",
      "rate":8,
      "type":"Café/Dessert",
      "id":"Bye8YzEGTl"
   },
   "293":{
      "address":"Tầng 1 Hanoi Creative City, 1 Lương Yên",
      "district":"Quận Hai Bà Trưng",
      "image":"HkiKzEfpl_1.jpg",
      "lat":21.01229,
      "long":105.86323,
      "name":"BOO Cafe - Hanoi Creative City",
      "octime":"  09:00 AM - 10:30 PM",
      "rate":7,
      "type":"Café/Dessert",
      "id":"HkiKzEfpl"
   },
   "294":{
      "address":"7 Hàng Thùng",
      "district":"Quận Hoàn Kiếm",
      "image":"ryx-9fNGTx_1.jpg",
      "lat":21.032328,
      "long":105.855265,
      "name":"Nhạc Cafe - Hàng Thùng",
      "octime":"  07:00 AM - 11:00 PM",
      "rate":8,
      "type":"Café/Dessert",
      "id":"ryx-9fNGTx"
   },
   "295":{
      "address":"99 Lê Duẩn",
      "district":"Quận Hai Bà Trưng",
      "image":"r1zqMEGae_1.jpg",
      "lat":21.0248677995754,
      "long":105.8415542542934,
      "name":"Typograf Café - Lê Duẩn",
      "octime":"  07:00 AM - 11:00 PM",
      "rate":7.8,
      "type":"Café/Dessert",
      "id":"r1zqMEGae"
   },
   "296":{
      "address":"239 Khương Trung",
      "district":"Quận Thanh Xuân",
      "image":"SJ-5fEGTl_1.jpg",
      "lat":20.9968482,
      "long":105.8175868,
      "name":"Up Coffee - Drinks & Dessert",
      "octime":"   08:00 AM - 11:00 PM",
      "rate":7.4,
      "type":"Café/Dessert",
      "id":"SJ-5fEGTl"
   },
   "297":{
      "address":"22 Nguyễn Quang Bích",
      "district":"Quận Hoàn Kiếm",
      "image":"rk8qzEGax_1.jpg",
      "lat":21.032022,
      "long":105.8458379999999,
      "name":"Cin Cin - Cafe & Tea",
      "octime":"  09:00 AM - 11:00 PM",
      "rate":7.6,
      "type":"Café/Dessert",
      "id":"rk8qzEGax"
   },
   "298":{
      "address":"83 Nam Đồng (101 Đặng Văn Ngữ)",
      "district":"Quận Đống Đa",
      "image":"SkaqGVMae_1.jpg",
      "lat":21.012966,
      "long":105.833163,
      "name":"Homie's Coffee",
      "octime":"  07:30 AM - 10:30 PM",
      "rate":7.6,
      "type":"Café/Dessert",
      "id":"SkaqGVMae"
   },
   "299":{
      "address":"45A Đào Duy Từ",
      "district":"Quận Hoàn Kiếm",
      "image":"BJxpcGVGal_1.jpg",
      "lat":21.034899,
      "long":105.853088,
      "name":"Dora Ninja - Cafe Bánh Nhật Bản",
      "octime":"  08:00 AM - 12:00 AM",
      "rate":8.1,
      "type":"Café/Dessert",
      "id":"BJxpcGVGal"
   },
   "300":{
      "address":"106 B9 Tô Hiệu",
      "district":"Quận Cầu Giấy",
      "image":"BJn9G4Gag_1.jpg",
      "lat":21.0424457609917,
      "long":105.7956948503851,
      "name":"Pattern Coffee - Tô Hiệu",
      "octime":"  07:00 AM - 11:00 PM",
      "rate":7.5,
      "type":"Café/Dessert",
      "id":"BJn9G4Gag"
   },
   "301":{
      "address":"14 Ngõ 56 Lê Văn Hiến",
      "district":"Quận Bắc Từ Liêm",
      "image":"HyAqMEfpx_1.jpg",
      "lat":21.074129,
      "long":105.773738,
      "name":"The Heart Cafe",
      "octime":"  08:00 AM - 10:00 PM",
      "rate":8.1,
      "type":"Café/Dessert",
      "id":"HyAqMEfpx"
   },
   "302":{
      "address":"63 Vũ Trọng Phụng",
      "district":"Quận Thanh Xuân",
      "image":"rJmizEzTe_1.jpg",
      "lat":20.9993419400882,
      "long":105.8083049207925,
      "name":"Chạm Coffee - Vũ Trọng Phụng",
      "octime":"  08:00 AM - 10:30 PM",
      "rate":7.8,
      "type":"Café/Dessert",
      "id":"rJmizEzTe"
   },
   "303":{
      "address":"18B Nhà Thờ",
      "district":"Quận Hoàn Kiếm",
      "image":"ByViGNGal_1.jpg",
      "lat":21.029103,
      "long":105.849731,
      "name":"Take Eat Easy Ice Cream & Cafe",
      "octime":"  08:00 AM - 11:00 PM",
      "rate":7.8,
      "type":"Café/Dessert",
      "id":"ByViGNGal"
   },
   "304":{
      "address":"P 312, TT. N4, Ngõ 34 Vạn Bảo",
      "district":"Quận Ba Đình",
      "image":"HJYoGNM6x_1.jpg",
      "lat":21.034147,
      "long":105.816759,
      "name":"Tracce Tea And Coffee Shop",
      "octime":"  07:00 AM - 10:00 PM",
      "rate":7.5,
      "type":"Café/Dessert",
      "id":"HJYoGNM6x"
   },
   "305":{
      "address":"Tầng 7, Tòa Nhà TID, 4 Liễu Giai",
      "district":"Quận Ba Đình",
      "image":"H1_sfEGpl_1.jpg",
      "lat":21.0369514430818,
      "long":105.8147677034139,
      "name":"Sky Coffee - Liễu Giai",
      "octime":"  06:30 AM - 11:00 PM",
      "rate":8.5,
      "type":"Café/Dessert",
      "id":"H1_sfEGpl"
   },
   "306":{
      "address":"16 Tập Thể Ga Long Biên, Trần Nhật Duật",
      "district":"Quận Hoàn Kiếm",
      "image":"BkCsG4fpx_1.jpg",
      "lat":21.039886,
      "long":105.85068,
      "name":"Serein Cafe & Lounge",
      "octime":"  09:00 AM - 11:00 PM",
      "rate":7,
      "type":"Café/Dessert",
      "id":"BkCsG4fpx"
   },
   "307":{
      "address":"38A Cao Bá Quát",
      "district":"Quận Ba Đình",
      "image":"ByTofNfpe_1.jpg",
      "lat":21.030237,
      "long":105.837709,
      "name":"Kei - Korean Food & Coffee Style - Cao Bá Quát",
      "octime":"  08:00 AM - 10:00 PM",
      "rate":7.2,
      "type":"Quán ăn",
      "id":"ByTofNfpe"
   },
   "308":{
      "address":"Tầng 2, 9A Hàng Khay",
      "district":"Quận Hoàn Kiếm",
      "image":"ByJnM4Mpe_1.jpg",
      "lat":21.0255465975354,
      "long":105.8526911213994,
      "name":"L'etage Cafe - Hàng Khay",
      "octime":"   08:00 AM - 10:30 PM",
      "rate":7.4,
      "type":"Café/Dessert",
      "id":"ByJnM4Mpe"
   },
   "309":{
      "address":"7 Trần Quý Kiên",
      "district":"Quận Cầu Giấy",
      "image":"SJe12G4MTx_1.jpg",
      "lat":21.036467,
      "long":105.791849,
      "name":"Queen's Coffee Japan - Bánh Crepe",
      "octime":"   07:00 AM - 12:00 AM",
      "rate":7.3,
      "type":"Café/Dessert",
      "id":"SJe12G4MTx"
   },
   "310":{
      "address":"10 Khúc Hạo",
      "district":"Quận Ba Đình",
      "image":"S1inGNzTl_1.jpg",
      "lat":21.0319354088775,
      "long":105.8372399210929,
      "name":"Tầng Trệt Cosmo Cafe - Breakfast & Brunch Restaurant",
      "octime":"  08:00 AM - 10:30 PM",
      "rate":7.4,
      "type":"Café/Dessert",
      "id":"S1inGNzTl"
   },
   "311":{
      "address":"26 Nhà Thờ",
      "district":"Quận Hoàn Kiếm",
      "image":"B1z6f4fpg_1.jpg",
      "lat":21.027324,
      "long":105.847741,
      "name":"Cafe Trà Chanh - Nhà Thờ",
      "octime":"  08:00 AM - 10:00 PM",
      "rate":7.5,
      "type":"Café/Dessert",
      "id":"B1z6f4fpg"
   },
   "312":{
      "address":"2 Ngõ 82 Nghĩa Tân",
      "district":"Quận Cầu Giấy",
      "image":"HJhnM4G6g_1.jpg",
      "lat":21.0435913498694,
      "long":105.7907304167747,
      "name":"Tầng Trệt Cafe And Tea Room",
      "octime":"   0:00 - 0:00",
      "rate":7.5,
      "type":"Café/Dessert",
      "id":"HJhnM4G6g"
   },
   "313":{
      "address":"9 Ngõ 16 Huỳnh Thúc Kháng",
      "district":"Quận Ba Đình",
      "image":"rk62MVM6g_1.jpg",
      "lat":21.0189027569699,
      "long":105.8106947690248,
      "name":"Nook Coffee & Tea House - Huỳnh Thúc Kháng",
      "octime":"  09:30 AM - 11:00 PM",
      "rate":6.9,
      "type":"Café/Dessert",
      "id":"rk62MVM6g"
   },
   "314":{
      "address":"1A Hòa Mã",
      "district":"Quận Hai Bà Trưng",
      "image":"B1GwaGVfal_1.jpg",
      "lat":21.015789,
      "long":105.856001,
      "name":"Papaya Island Coffee - Hòa Mã",
      "octime":"  09:00 AM - 10:00 PM",
      "rate":7.5,
      "type":"Café/Dessert",
      "id":"B1GwaGVfal"
   },
   "315":{
      "address":"Tầng 2, 9A Hàng Khay",
      "district":"Quận Hoàn Kiếm",
      "image":"Hy4az4zTx_1.jpg",
      "lat":21.0255465975354,
      "long":105.8526911213994,
      "name":"L'etage Cafe - Hàng Khay",
      "octime":"   08:00 AM - 10:30 PM",
      "rate":7.4,
      "type":"Café/Dessert",
      "id":"Hy4az4zTx"
   }
}